source_timestamp,destination_timestamp,x,y,z,roll,pitch,yaw,source_radar_timestamp,destination_radar_timestamp
1547131014730417,1547131014477724,0.000269,-0.000270,-0.000000,-0.000000,-0.000000,0.000011,1547131014603839,1547131014351772
1547131014983426,1547131014730417,0.001167,-0.000100,-0.000000,0.000000,-0.000000,-0.000012,1547131014857246,1547131014603839
1547131015235031,1547131014983426,0.000985,0.000290,-0.000000,-0.000000,-0.000000,-0.000000,1547131015109865,1547131014857246
1547131015484492,1547131015235031,0.001502,0.000346,-0.000000,-0.000000,-0.000000,-0.000020,1547131015360474,1547131015109865
1547131015732199,1547131015484492,-0.002200,-0.001113,-0.000000,0.000000,0.000000,0.000119,1547131015608777,1547131015360474
1547131015979316,1547131015732199,-0.000965,0.000399,-0.000000,0.000000,0.000000,-0.000016,1547131015855880,1547131015608777
1547131016226188,1547131015979316,0.000530,0.000379,-0.000000,0.000000,0.000000,-0.000062,1547131016102906,1547131015855880
1547131016473759,1547131016226188,0.001232,-0.000743,-0.000000,-0.000000,-0.000000,-0.000010,1547131016349600,1547131016102906
1547131016722981,1547131016473759,-0.000251,0.000221,-0.000000,-0.000000,-0.000000,0.000008,1547131016598174,1547131016349600
1547131016973228,1547131016722981,0.000451,0.000008,-0.000000,0.000000,-0.000000,0.000007,1547131016848022,1547131016598174
1547131017223438,1547131016973228,0.000355,0.000236,-0.000000,-0.000000,-0.000000,0.000005,1547131017098615,1547131016848022
1547131017473137,1547131017223438,0.000181,0.000335,-0.000000,0.000000,0.000000,-0.000008,1547131017348496,1547131017098615
1547131017722631,1547131017473137,0.000055,0.000079,-0.000000,-0.000000,0.000000,-0.000003,1547131017598040,1547131017348496
1547131017971860,1547131017722631,-0.001280,-0.000985,-0.000000,-0.000000,-0.000000,0.000062,1547131017847537,1547131017598040
1547131018220803,1547131017971860,0.000545,0.000728,-0.000000,-0.000000,-0.000000,-0.000064,1547131018096426,1547131017847537
1547131018469595,1547131018220803,0.000946,0.000593,-0.000000,-0.000000,0.000000,-0.000054,1547131018345382,1547131018096426
1547131018719224,1547131018469595,0.000388,0.000047,-0.000000,-0.000000,0.000000,-0.000014,1547131018594065,1547131018345382
1547131018970192,1547131018719224,-0.001752,-0.000382,-0.000000,0.000000,0.000000,0.000006,1547131018844707,1547131018594065
1547131019220577,1547131018970192,-0.000856,-0.000642,-0.000000,0.000000,-0.000000,0.000096,1547131019095842,1547131018844707
1547131019470621,1547131019220577,0.002664,0.000552,-0.000000,-0.000000,0.000000,-0.000019,1547131019345662,1547131019095842
1547131019720977,1547131019470621,0.001905,0.000486,-0.000000,-0.000000,0.000000,-0.000077,1547131019595716,1547131019345662
1547131019972578,1547131019720977,-0.000377,0.000228,0.000000,0.000000,0.000000,-0.000057,1547131019846246,1547131019595716
1547131020225165,1547131019972578,-0.002201,0.000023,-0.000000,0.000000,-0.000000,0.000001,1547131020098930,1547131019846246
1547131020477637,1547131020225165,0.000826,-0.000183,-0.000000,0.000000,0.000000,-0.000014,1547131020351409,1547131020098930
1547131020729746,1547131020477637,0.001082,0.000227,0.000000,0.000000,0.000000,-0.000032,1547131020604107,1547131020351409
1547131020980055,1547131020729746,-0.003690,-0.000826,-0.000000,-0.000000,0.000000,0.000146,1547131020855517,1547131020604107
1547131021228476,1547131020980055,-0.003339,-0.001005,-0.000000,-0.000000,0.000000,0.000140,1547131021104602,1547131020855517
1547131021476356,1547131021228476,0.000598,-0.000407,-0.000000,-0.000000,0.000000,0.000025,1547131021352482,1547131021104602
1547131021724305,1547131021476356,0.001981,0.000616,-0.000000,0.000000,-0.000000,-0.000049,1547131021600519,1547131021352482
1547131021972145,1547131021724305,0.003922,0.001866,-0.000000,0.000000,-0.000000,-0.000178,1547131021848239,1547131021600519
1547131022220714,1547131021972145,0.000553,-0.000285,-0.000000,-0.000000,-0.000000,-0.000007,1547131022096296,1547131021848239
1547131022470288,1547131022220714,-0.000924,-0.001076,-0.000000,0.000000,-0.000000,0.000082,1547131022345409,1547131022096296
1547131022720311,1547131022470288,0.000034,-0.000128,-0.000000,0.000000,0.000000,0.000047,1547131022595436,1547131022345409
1547131022970025,1547131022720311,-0.001745,-0.000176,0.000000,0.000000,-0.000000,0.000024,1547131022845453,1547131022595436
1547131023219067,1547131022970025,-0.000973,-0.000339,-0.000000,0.000000,-0.000000,0.000011,1547131023094610,1547131022845453
1547131023468356,1547131023219067,0.000052,0.000106,-0.000000,0.000000,0.000000,-0.000021,1547131023343773,1547131023094610
1547131023718281,1547131023468356,0.000718,0.000360,-0.000000,0.000000,0.000000,-0.000046,1547131023592949,1547131023343773
1547131023969328,1547131023718281,0.000483,0.000081,-0.000000,0.000000,-0.000000,-0.000038,1547131023843733,1547131023592949
1547131024220232,1547131023969328,-0.000962,-0.001560,-0.000000,-0.000000,0.000000,0.000081,1547131024095183,1547131023843733
1547131024470571,1547131024220232,-0.001094,0.000401,-0.000000,0.000000,0.000000,0.000044,1547131024345549,1547131024095183
1547131024720837,1547131024470571,-0.000201,0.000306,-0.000000,-0.000000,0.000000,0.000009,1547131024595871,1547131024345549
1547131024972263,1547131024720837,0.001156,0.000472,-0.000000,-0.000000,0.000000,-0.000040,1547131024846063,1547131024595871
1547131025224950,1547131024972263,0.002169,0.000945,-0.000000,0.000000,-0.000000,-0.000066,1547131025098573,1547131024846063
1547131025477530,1547131025224950,0.002207,-0.000068,-0.000000,-0.000000,-0.000000,0.000044,1547131025351459,1547131025098573
1547131025729778,1547131025477530,-0.002362,-0.000640,-0.000000,-0.000000,-0.000000,0.000022,1547131025604167,1547131025351459
1547131025980064,1547131025729778,-0.001660,-0.000242,-0.000000,0.000000,-0.000000,0.000018,1547131025855398,1547131025604167
1547131026228645,1547131025980064,0.000943,0.000342,-0.000000,0.000000,-0.000000,-0.000016,1547131026104927,1547131025855398
1547131026476513,1547131026228645,0.002625,0.000625,-0.000000,-0.000000,-0.000000,-0.000049,1547131026352674,1547131026104927
1547131026724196,1547131026476513,-0.003744,-0.000670,-0.000000,0.000000,0.000000,0.000037,1547131026600528,1547131026352674
1547131026971865,1547131026724196,-0.000099,-0.000222,-0.000000,0.000000,-0.000000,0.000010,1547131026848010,1547131026600528
1547131027220472,1547131026971865,0.000230,-0.000073,-0.000000,-0.000000,-0.000000,0.000008,1547131027095826,1547131026848010
1547131027470044,1547131027220472,0.000057,0.000167,-0.000000,-0.000000,-0.000000,-0.000023,1547131027345389,1547131027095826
1547131027719835,1547131027470044,0.000682,0.000331,-0.000000,-0.000000,-0.000000,-0.000058,1547131027594956,1547131027345389
1547131027969652,1547131027719835,0.001241,0.000501,-0.000000,-0.000000,0.000000,0.000047,1547131027844980,1547131027594956
1547131028218781,1547131027969652,0.005106,-0.001467,-0.000000,-0.000000,0.000000,-0.000008,1547131028094604,1547131027844980
1547131028467567,1547131028218781,0.026677,-0.001028,-0.000000,-0.000000,-0.000000,-0.000077,1547131028343236,1547131028094604
1547131028716997,1547131028467567,0.048349,0.000210,-0.000000,0.000000,-0.000000,-0.000128,1547131028592044,1547131028343236
1547131028967223,1547131028716997,0.118665,0.000419,-0.000000,0.000000,0.000000,0.000438,1547131028842224,1547131028592044
1547131029217107,1547131028967223,0.177160,0.001567,-0.000000,0.000000,-0.000000,0.001935,1547131029092338,1547131028842224
1547131029466951,1547131029217107,0.276123,0.002716,-0.000000,0.000000,0.000000,0.006746,1547131029342119,1547131029092338
1547131029716906,1547131029466951,0.362744,0.009292,-0.000000,-0.000000,0.000000,0.009650,1547131029592059,1547131029342119
1547131029966692,1547131029716906,0.468315,0.009203,-0.000000,0.000000,0.000000,0.012586,1547131029841864,1547131029592059
1547131030216569,1547131029966692,0.574353,0.009468,-0.000000,-0.000000,-0.000000,0.015596,1547131030091639,1547131029841864
1547131030466402,1547131030216569,0.692700,0.019974,-0.000000,-0.000000,-0.000000,0.016607,1547131030341507,1547131030091639
1547131030715803,1547131030466402,0.814266,0.006660,-0.000000,-0.000000,0.000000,0.019814,1547131030591586,1547131030341507
1547131030965904,1547131030715803,0.941250,0.007062,-0.000000,0.000000,-0.000000,0.018218,1547131030840280,1547131030591586
1547131031218084,1547131030965904,1.061672,0.004587,-0.000000,-0.000000,-0.000000,0.011127,1547131031091784,1547131030840280
1547131031469564,1547131031218084,1.160174,0.008427,-0.000000,-0.000000,-0.000000,0.008725,1547131031344392,1547131031091784
1547131031720864,1547131031469564,1.290475,0.004837,-0.000000,0.000000,0.000000,0.002303,1547131031594895,1547131031344392
1547131031972199,1547131031720864,1.439248,-0.015905,-0.000000,-0.000000,0.000000,0.000868,1547131031846839,1547131031594895
1547131032222629,1547131031972199,1.545391,-0.019522,-0.000000,0.000000,-0.000000,-0.002565,1547131032097829,1547131031846839
1547131032473260,1547131032222629,1.689570,-0.017122,-0.000000,0.000000,-0.000000,-0.004383,1547131032347703,1547131032097829
1547131032724193,1547131032473260,1.844665,-0.016521,-0.000000,0.000000,0.000000,-0.004593,1547131032599072,1547131032347703
1547131032974016,1547131032724193,1.650599,-0.013773,-0.000000,-0.000000,-0.000000,-0.007993,1547131032849577,1547131032599072
1547131033223836,1547131032974016,1.950807,-0.030079,-0.000000,-0.000000,-0.000000,-0.006845,1547131033098700,1547131032849577
1547131033473794,1547131033223836,1.980979,-0.029351,-0.000000,-0.000000,0.000000,-0.007146,1547131033349094,1547131033098700
1547131033723114,1547131033473794,2.040763,-0.023188,-0.000000,0.000000,-0.000000,-0.003213,1547131033598768,1547131033349094
1547131033972283,1547131033723114,2.141136,-0.011261,-0.000000,-0.000000,0.000000,-0.001054,1547131033847699,1547131033598768
1547131034221631,1547131033972283,2.198819,-0.015923,-0.000000,0.000000,-0.000000,-0.002560,1547131034097104,1547131033847699
1547131034471702,1547131034221631,2.287150,-0.024100,-0.000000,0.000000,0.000000,-0.003115,1547131034346280,1547131034097104
1547131034722236,1547131034471702,2.334905,-0.022916,-0.000000,0.000000,-0.000000,-0.004717,1547131034597479,1547131034346280
1547131034972072,1547131034722236,2.385266,-0.022050,-0.000000,-0.000000,0.000000,-0.004867,1547131034847100,1547131034597479
1547131035222210,1547131034972072,2.391291,-0.020493,-0.000000,-0.000000,-0.000000,-0.004574,1547131035097290,1547131034847100
1547131035472062,1547131035222210,2.419655,-0.024595,-0.000000,0.000000,-0.000000,-0.004565,1547131035347272,1547131035097290
1547131035721748,1547131035472062,2.464162,-0.024715,-0.000000,0.000000,0.000000,-0.003610,1547131035596966,1547131035347272
1547131035971840,1547131035721748,2.526720,-0.024865,-0.000000,0.000000,-0.000000,-0.001758,1547131035846789,1547131035596966
1547131036222897,1547131035971840,2.534056,-0.023784,-0.000000,-0.000000,-0.000000,-0.002294,1547131036097138,1547131035846789
1547131036475161,1547131036222897,2.511763,-0.016297,0.000000,-0.000000,-0.000000,-0.002147,1547131036348905,1547131036097138
1547131036727655,1547131036475161,2.577633,-0.018076,-0.000000,-0.000000,0.000000,-0.002214,1547131036601714,1547131036348905
1547131036979217,1547131036727655,2.403140,-0.017176,0.000000,-0.000000,0.000000,-0.003262,1547131036853694,1547131036601714
1547131037230242,1547131036979217,2.397190,-0.030389,-0.000000,0.000000,0.000000,-0.001064,1547131037105023,1547131036853694
1547131037480196,1547131037230242,2.365083,-0.014629,-0.000000,-0.000000,-0.000000,-0.000969,1547131037355832,1547131037105023
1547131037729423,1547131037480196,2.342516,-0.009963,-0.000000,0.000000,0.000000,0.000010,1547131037604698,1547131037355832
1547131037978659,1547131037729423,2.367562,-0.007651,-0.000000,0.000000,-0.000000,-0.001141,1547131037854351,1547131037604698
1547131038227156,1547131037978659,2.320624,-0.010713,-0.000000,-0.000000,-0.000000,-0.001314,1547131038103185,1547131037854351
1547131038475486,1547131038227156,2.330214,-0.006522,-0.000000,-0.000000,-0.000000,-0.001349,1547131038351397,1547131038103185
1547131038723568,1547131038475486,2.325547,-0.004342,-0.000000,-0.000000,0.000000,-0.000542,1547131038599860,1547131038351397
1547131038971255,1547131038723568,2.379811,-0.007117,-0.000000,0.000000,-0.000000,-0.001433,1547131038847282,1547131038599860
1547131039219995,1547131038971255,2.513079,-0.015946,-0.000000,-0.000000,0.000000,0.000966,1547131039095503,1547131038847282
1547131039469706,1547131039219995,2.487739,-0.010309,-0.000000,-0.000000,-0.000000,-0.001411,1547131039344764,1547131039095503
1547131039720176,1547131039469706,2.376297,-0.007479,-0.000000,-0.000000,-0.000000,-0.002463,1547131039594741,1547131039344764
1547131039970669,1547131039720176,2.387522,-0.018111,-0.000000,0.000000,-0.000000,-0.004197,1547131039845620,1547131039594741
1547131040220412,1547131039970669,2.367002,-0.013195,-0.000000,-0.000000,0.000000,-0.005328,1547131040095953,1547131039845620
1547131040470788,1547131040220412,2.357271,-0.015585,-0.000000,-0.000000,-0.000000,-0.003264,1547131040345161,1547131040095953
1547131040722843,1547131040470788,2.340283,-0.004817,0.000000,-0.000000,0.000000,0.000037,1547131040596682,1547131040345161
1547131040975514,1547131040722843,2.394084,0.004906,-0.000000,-0.000000,-0.000000,0.002831,1547131040849245,1547131040596682
1547131041227670,1547131040975514,2.405330,-0.001228,-0.000000,-0.000000,0.000000,0.005937,1547131041102067,1547131040849245
1547131041479118,1547131041227670,2.429919,0.002512,-0.000000,0.000000,-0.000000,0.006161,1547131041353597,1547131041102067
1547131041729324,1547131041479118,2.534344,0.002099,-0.000000,-0.000000,-0.000000,0.004144,1547131041604799,1547131041353597
1547131041978255,1547131041729324,2.555738,0.002724,-0.000000,0.000000,-0.000000,0.004948,1547131041853855,1547131041604799
1547131042227549,1547131041978255,2.573597,-0.001132,-0.000000,-0.000000,-0.000000,0.003264,1547131042102934,1547131041853855
1547131042476602,1547131042227549,2.547066,-0.003906,-0.000000,0.000000,0.000000,0.002547,1547131042352513,1547131042102934
1547131042725285,1547131042476602,2.523930,-0.001234,-0.000000,-0.000000,0.000000,0.002414,1547131042600712,1547131042352513
1547131042974271,1547131042725285,2.541127,-0.005265,-0.000000,-0.000000,-0.000000,0.001180,1547131042850121,1547131042600712
1547131043222557,1547131042974271,2.557991,-0.012404,-0.000000,-0.000000,0.000000,0.001645,1547131043098710,1547131042850121
1547131043470459,1547131043222557,2.588468,-0.017675,-0.000000,0.000000,-0.000000,0.000175,1547131043346670,1547131043098710
1547131043718423,1547131043470459,2.595226,-0.009808,-0.000000,0.000000,-0.000000,0.000299,1547131043594511,1547131043346670
1547131043966294,1547131043718423,2.603969,-0.003874,-0.000000,0.000000,-0.000000,-0.000294,1547131043842597,1547131043594511
1547131044214561,1547131043966294,2.614027,-0.016429,-0.000000,-0.000000,0.000000,-0.001790,1547131044090000,1547131043842597
1547131044465286,1547131044214561,2.426599,-0.012364,-0.000000,0.000000,-0.000000,-0.001255,1547131044339266,1547131044090000
1547131044717219,1547131044465286,2.382894,-0.007326,-0.000000,-0.000000,-0.000000,-0.001980,1547131044591578,1547131044339266
1547131044968769,1547131044717219,2.506931,-0.005158,-0.000000,-0.000000,-0.000000,-0.000675,1547131044843098,1547131044591578
1547131045220571,1547131044968769,2.671136,-0.000806,-0.000000,0.000000,-0.000000,-0.002224,1547131045094830,1547131044843098
1547131045472364,1547131045220571,2.611855,-0.001287,-0.000000,-0.000000,0.000000,-0.004652,1547131045346549,1547131045094830
1547131045723557,1547131045472364,2.580855,-0.011249,-0.000000,0.000000,0.000000,-0.003641,1547131045598274,1547131045346549
1547131045974876,1547131045723557,2.553944,-0.017298,-0.000000,0.000000,0.000000,-0.004191,1547131045849106,1547131045598274
1547131046227224,1547131045974876,2.543304,-0.016243,-0.000000,-0.000000,-0.000000,-0.010265,1547131046100947,1547131045849106
1547131046480034,1547131046227224,2.478813,-0.013214,-0.000000,-0.000000,-0.000000,-0.012238,1547131046353776,1547131046100947
1547131046732448,1547131046480034,2.402550,-0.022744,-0.000000,0.000000,-0.000000,-0.011546,1547131046606586,1547131046353776
1547131046983473,1547131046732448,2.286416,-0.011055,0.000000,0.000000,-0.000000,-0.010155,1547131046858560,1547131046606586
1547131047232454,1547131046983473,2.078366,-0.022247,-0.000000,-0.000000,0.000000,-0.010876,1547131047108396,1547131046858560
1547131047480679,1547131047232454,1.930374,-0.019123,-0.000000,0.000000,-0.000000,-0.007732,1547131047356527,1547131047108396
1547131047728401,1547131047480679,1.878835,-0.012445,-0.000000,-0.000000,0.000000,-0.006157,1547131047604949,1547131047356527
1547131047975757,1547131047728401,1.934158,-0.000435,-0.000000,0.000000,-0.000000,-0.004559,1547131047852128,1547131047604949
1547131048223643,1547131047975757,1.861726,-0.001693,-0.000000,-0.000000,0.000000,-0.002058,1547131048099652,1547131047852128
1547131048472026,1547131048223643,1.785589,0.004586,-0.000000,-0.000000,-0.000000,0.001168,1547131048348015,1547131048099652
1547131048720831,1547131048472026,1.674029,0.008494,-0.000000,-0.000000,0.000000,0.008735,1547131048596300,1547131048348015
1547131048970897,1547131048720831,1.576616,0.006244,-0.000000,-0.000000,0.000000,0.009058,1547131048845472,1547131048596300
1547131049221720,1547131048970897,1.543221,0.008295,-0.000000,-0.000000,-0.000000,0.003044,1547131049096467,1547131048845472
1547131049472132,1547131049221720,1.419102,0.008521,-0.000000,0.000000,-0.000000,0.004848,1547131049347224,1547131049096467
1547131049722853,1547131049472132,1.338977,0.015245,-0.000000,-0.000000,-0.000000,0.010522,1547131049597289,1547131049347224
1547131049974796,1547131049722853,1.262946,0.011478,-0.000000,-0.000000,-0.000000,0.008711,1547131049848692,1547131049597289
1547131050227114,1547131049974796,1.187762,0.013308,-0.000000,0.000000,0.000000,0.006382,1547131050101138,1547131049848692
1547131050479391,1547131050227114,1.118665,0.007473,-0.000000,0.000000,-0.000000,0.005671,1547131050353296,1547131050101138
1547131050731065,1547131050479391,1.038132,0.006129,-0.000000,-0.000000,-0.000000,0.004256,1547131050605600,1547131050353296
1547131050982510,1547131050731065,0.953778,0.006803,-0.000000,0.000000,0.000000,0.003848,1547131050856549,1547131050605600
1547131051235150,1547131050982510,0.864929,0.004842,0.000000,0.000000,-0.000000,0.001772,1547131051108813,1547131050856549
1547131051486666,1547131051235150,0.775758,0.004521,-0.000000,0.000000,-0.000000,0.002267,1547131051361802,1547131051108813
1547131051736145,1547131051486666,0.718097,0.005308,-0.000000,-0.000000,-0.000000,0.004371,1547131051611654,1547131051361802
1547131051985428,1547131051736145,0.640306,0.001760,0.000000,-0.000000,-0.000000,0.004119,1547131051860657,1547131051611654
1547131052234137,1547131051985428,0.606363,0.002709,-0.000000,-0.000000,0.000000,0.003508,1547131052110220,1547131051860657
1547131052482285,1547131052234137,0.553784,0.002195,-0.000000,0.000000,0.000000,0.002785,1547131052358304,1547131052110220
1547131052730465,1547131052482285,0.493354,0.002128,-0.000000,0.000000,-0.000000,0.002194,1547131052606390,1547131052358304
1547131052978507,1547131052730465,0.443804,0.003001,-0.000000,-0.000000,0.000000,0.001834,1547131052854808,1547131052606390
1547131053226281,1547131052978507,0.396298,0.002627,-0.000000,-0.000000,-0.000000,0.001314,1547131053102453,1547131052854808
1547131053474681,1547131053226281,0.306779,0.001108,-0.000000,-0.000000,0.000000,0.001009,1547131053350348,1547131053102453
1547131053723557,1547131053474681,0.211711,0.001491,-0.000000,-0.000000,0.000000,0.000739,1547131053599279,1547131053350348
1547131053972250,1547131053723557,0.117122,-0.001167,-0.000000,0.000000,-0.000000,0.000085,1547131053847921,1547131053599279
1547131054221213,1547131053972250,0.049426,0.000706,-0.000000,0.000000,0.000000,0.000030,1547131054096655,1547131053847921
1547131054470180,1547131054221213,0.063247,0.001238,-0.000000,-0.000000,-0.000000,0.000048,1547131054346009,1547131054096655
1547131054719749,1547131054470180,0.070530,0.004098,-0.000000,-0.000000,-0.000000,0.000036,1547131054594625,1547131054346009
1547131054970719,1547131054719749,0.089993,0.001326,-0.000000,0.000000,0.000000,0.000178,1547131054845109,1547131054594625
1547131055221581,1547131054970719,0.079246,0.002104,-0.000000,-0.000000,-0.000000,0.000350,1547131055096745,1547131054845109
1547131055471810,1547131055221581,0.098717,0.001046,-0.000000,-0.000000,0.000000,0.000937,1547131055346542,1547131055096745
1547131055722436,1547131055471810,0.174234,0.003549,-0.000000,-0.000000,-0.000000,0.001992,1547131055597324,1547131055346542
1547131055972854,1547131055722436,0.236354,0.004916,-0.000000,0.000000,-0.000000,0.003513,1547131055847809,1547131055597324
1547131056223780,1547131055972854,0.317952,0.004650,-0.000000,-0.000000,0.000000,0.004924,1547131056098030,1547131055847809
1547131056476009,1547131056223780,0.407295,0.006527,-0.000000,-0.000000,-0.000000,0.006643,1547131056349770,1547131056098030
1547131056728204,1547131056476009,0.501013,0.008676,-0.000000,0.000000,-0.000000,0.007978,1547131056602652,1547131056349770
1547131056979571,1547131056728204,0.569385,0.010158,-0.000000,0.000000,-0.000000,0.008333,1547131056853865,1547131056602652
1547131057231142,1547131056979571,0.668173,0.009027,-0.000000,-0.000000,-0.000000,0.009884,1547131057105415,1547131056853865
1547131057482047,1547131057231142,0.770704,0.010204,-0.000000,0.000000,-0.000000,0.009495,1547131057357136,1547131057105415
1547131057732534,1547131057482047,0.871008,0.011254,-0.000000,0.000000,0.000000,0.010173,1547131057607203,1547131057357136
1547131057983786,1547131057732534,0.975899,0.008213,-0.000000,-0.000000,-0.000000,0.008790,1547131057858132,1547131057607203
1547131058234524,1547131057983786,1.059241,0.002676,-0.000000,0.000000,0.000000,0.006389,1547131058109684,1547131057858132
1547131058484937,1547131058234524,1.174937,-0.000322,-0.000000,0.000000,-0.000000,0.002458,1547131058359629,1547131058109684
1547131058735093,1547131058484937,1.231473,-0.009106,-0.000000,0.000000,-0.000000,-0.002790,1547131058610543,1547131058359629
1547131058984467,1547131058735093,1.241145,-0.007158,-0.000000,-0.000000,-0.000000,-0.003349,1547131058859906,1547131058610543
1547131059233713,1547131058984467,1.227215,-0.009752,-0.000000,-0.000000,0.000000,-0.002766,1547131059109484,1547131058859906
1547131059482472,1547131059233713,1.276887,-0.004381,-0.000000,-0.000000,0.000000,-0.002565,1547131059358072,1547131059109484
1547131059731254,1547131059482472,1.318447,-0.004155,0.000000,0.000000,-0.000000,-0.001973,1547131059606999,1547131059358072
1547131059981343,1547131059731254,1.393205,-0.005378,-0.000000,0.000000,-0.000000,-0.001286,1547131059855876,1547131059606999
1547131060232181,1547131059981343,1.465590,-0.007813,-0.000000,-0.000000,0.000000,-0.003522,1547131060107125,1547131059855876
1547131060482481,1547131060232181,1.525079,-0.010581,-0.000000,-0.000000,0.000000,-0.003762,1547131060357485,1547131060107125
1547131060732576,1547131060482481,1.615616,-0.017781,-0.000000,-0.000000,-0.000000,-0.001862,1547131060607614,1547131060357485
1547131060982666,1547131060732576,1.681777,-0.009526,-0.000000,-0.000000,-0.000000,-0.001221,1547131060857641,1547131060607614
1547131061233303,1547131060982666,1.748712,-0.004619,-0.000000,0.000000,-0.000000,0.000254,1547131061107826,1547131060857641
1547131061485026,1547131061233303,1.813566,-0.000103,-0.000000,0.000000,-0.000000,0.000381,1547131061359050,1547131061107826
1547131061737110,1547131061485026,1.886281,-0.001938,-0.000000,0.000000,-0.000000,0.001152,1547131061611010,1547131061359050
1547131061988983,1547131061737110,1.929776,0.010751,-0.000000,-0.000000,-0.000000,0.001143,1547131061863447,1547131061611010
1547131062240483,1547131061988983,1.997180,0.005939,-0.000000,0.000000,0.000000,0.000037,1547131062114783,1547131061863447
1547131062492022,1547131062240483,2.041011,0.002182,-0.000000,-0.000000,-0.000000,0.000122,1547131062366421,1547131062114783
1547131062742969,1547131062492022,2.073021,-0.002879,-0.000000,-0.000000,0.000000,0.001042,1547131062617855,1547131062366421
1547131062993611,1547131062742969,2.109219,-0.001245,-0.000000,0.000000,-0.000000,0.000279,1547131062868332,1547131062617855
1547131063244625,1547131062993611,2.116066,0.006046,-0.000000,-0.000000,0.000000,0.000818,1547131063119203,1547131062868332
1547131063494993,1547131063244625,2.151671,0.006242,-0.000000,-0.000000,-0.000000,0.003993,1547131063370310,1547131063119203
1547131063744523,1547131063494993,2.150904,0.013355,-0.000000,0.000000,0.000000,0.008647,1547131063620001,1547131063370310
1547131063994031,1547131063744523,2.162620,0.011090,-0.000000,-0.000000,-0.000000,0.007037,1547131063869349,1547131063620001
1547131064243094,1547131063994031,2.212157,0.007834,-0.000000,0.000000,-0.000000,0.005416,1547131064118951,1547131063869349
1547131064491948,1547131064243094,2.218334,0.005197,-0.000000,0.000000,-0.000000,0.003544,1547131064367535,1547131064118951
1547131064741325,1547131064491948,2.202442,0.002736,-0.000000,0.000000,-0.000000,0.001890,1547131064616458,1547131064367535
1547131064991800,1547131064741325,2.075082,0.002362,-0.000000,-0.000000,0.000000,0.001983,1547131064866591,1547131064616458
1547131065241940,1547131064991800,1.919906,0.000301,-0.000000,-0.000000,-0.000000,0.001133,1547131065117113,1547131064866591
1547131065492325,1547131065241940,2.208176,0.004526,-0.000000,0.000000,0.000000,0.001606,1547131065367013,1547131065117113
1547131065742758,1547131065492325,2.218725,-0.000905,-0.000000,0.000000,0.000000,0.001163,1547131065617731,1547131065367013
1547131065992718,1547131065742758,2.154144,0.003077,-0.000000,0.000000,-0.000000,0.001313,1547131065867929,1547131065617731
1547131066243330,1547131065992718,2.126431,0.001592,-0.000000,-0.000000,-0.000000,0.001905,1547131066117513,1547131065867929
1547131066495692,1547131066243330,2.115247,-0.003137,-0.000000,-0.000000,-0.000000,0.001801,1547131066369431,1547131066117513
1547131066748546,1547131066495692,2.035699,0.004514,-0.000000,0.000000,-0.000000,0.002142,1547131066622242,1547131066369431
1547131067000532,1547131066748546,2.013012,-0.001041,-0.000000,-0.000000,-0.000000,0.001222,1547131066875124,1547131066622242
1547131067250443,1547131067000532,1.957958,-0.001183,-0.000000,-0.000000,0.000000,0.002085,1547131067126193,1547131066875124
1547131067499058,1547131067250443,1.925029,0.004333,-0.000000,0.000000,-0.000000,0.001367,1547131067374926,1547131067126193
1547131067747378,1547131067499058,1.882962,-0.007641,-0.000000,-0.000000,-0.000000,0.000106,1547131067623432,1547131067374926
1547131067995321,1547131067747378,1.846042,-0.000652,-0.000000,0.000000,-0.000000,0.001787,1547131067871514,1547131067623432
1547131068242744,1547131067995321,1.794911,-0.001575,-0.000000,-0.000000,-0.000000,0.000903,1547131068119276,1547131067871514
1547131068490998,1547131068242744,1.750330,0.000741,-0.000000,-0.000000,0.000000,0.001048,1547131068366480,1547131068119276
1547131068740288,1547131068490998,1.663959,-0.000135,-0.000000,0.000000,0.000000,0.001637,1547131068615786,1547131068366480
1547131068989757,1547131068740288,1.557466,0.000456,-0.000000,0.000000,0.000000,0.001719,1547131068865069,1547131068615786
1547131069238996,1547131068989757,1.469856,-0.000811,-0.000000,-0.000000,-0.000000,0.001474,1547131069114583,1547131068865069
1547131069488092,1547131069238996,1.349233,0.000397,-0.000000,-0.000000,-0.000000,0.002010,1547131069363605,1547131069114583
1547131069737073,1547131069488092,1.234304,0.002005,-0.000000,-0.000000,0.000000,0.002759,1547131069612725,1547131069363605
1547131069987363,1547131069737073,1.131840,0.003054,-0.000000,-0.000000,-0.000000,0.002410,1547131069861592,1547131069612725
1547131070238763,1547131069987363,1.024832,0.002647,-0.000000,-0.000000,0.000000,0.002231,1547131070113363,1547131069861592
1547131070489198,1547131070238763,1.002672,0.003510,-0.000000,0.000000,-0.000000,0.002699,1547131070364172,1547131070113363
1547131070739396,1547131070489198,0.943579,0.025665,-0.000000,0.000000,-0.000000,0.001869,1547131070614392,1547131070364172
1547131070991008,1547131070739396,0.923854,-0.002854,-0.000000,-0.000000,0.000000,0.001786,1547131070864792,1547131070614392
1547131071243975,1547131070991008,0.906222,-0.014992,-0.000000,0.000000,-0.000000,0.002631,1547131071117346,1547131070864792
1547131071496681,1547131071243975,0.897854,-0.001177,-0.000000,-0.000000,-0.000000,0.003296,1547131071370928,1547131071117346
1547131071747259,1547131071496681,0.920652,0.000316,-0.000000,0.000000,-0.000000,0.003407,1547131071622722,1547131071370928
1547131071995974,1547131071747259,0.943402,-0.001298,-0.000000,0.000000,-0.000000,0.001097,1547131071871936,1547131071622722
1547131072244635,1547131071995974,0.969449,-0.001466,-0.000000,-0.000000,0.000000,-0.000696,1547131072120019,1547131071871936
1547131072492956,1547131072244635,1.006582,-0.009874,-0.000000,0.000000,-0.000000,-0.001471,1547131072369413,1547131072120019
1547131072740383,1547131072492956,1.028551,-0.008363,-0.000000,0.000000,-0.000000,-0.003614,1547131072616829,1547131072369413
1547131072988358,1547131072740383,1.061106,-0.001165,-0.000000,-0.000000,0.000000,-0.002287,1547131072864195,1547131072616829
1547131073236920,1547131072988358,1.117193,-0.007207,-0.000000,-0.000000,-0.000000,-0.001722,1547131073112784,1547131072864195
1547131073485833,1547131073236920,1.143524,-0.003404,-0.000000,-0.000000,-0.000000,-0.002161,1547131073361321,1547131073112784
1547131073735090,1547131073485833,1.111964,-0.007087,-0.000000,-0.000000,0.000000,-0.003084,1547131073610499,1547131073361321
1547131073984274,1547131073735090,1.088826,-0.008512,-0.000000,0.000000,-0.000000,-0.003030,1547131073859832,1547131073610499
1547131074233267,1547131073984274,1.302294,-0.009764,-0.000000,0.000000,0.000000,-0.003463,1547131074108997,1547131073859832
1547131074483121,1547131074233267,1.330183,-0.009993,-0.000000,0.000000,-0.000000,-0.004758,1547131074357792,1547131074108997
1547131074733442,1547131074483121,1.403577,-0.012269,-0.000000,0.000000,0.000000,-0.005702,1547131074608618,1547131074357792
1547131074983249,1547131074733442,1.448739,-0.007971,-0.000000,-0.000000,0.000000,-0.003705,1547131074858533,1547131074608618
1547131075232984,1547131074983249,1.456868,-0.006259,-0.000000,-0.000000,-0.000000,-0.000009,1547131075108238,1547131074858533
1547131075483088,1547131075232984,1.548529,-0.003507,-0.000000,0.000000,-0.000000,0.000875,1547131075357746,1547131075108238
1547131075733509,1547131075483088,1.446698,-0.009534,-0.000000,-0.000000,0.000000,0.000929,1547131075608721,1547131075357746
1547131075983385,1547131075733509,1.610624,-0.008024,-0.000000,-0.000000,-0.000000,0.001670,1547131075858718,1547131075608721
1547131076233249,1547131075983385,1.704366,-0.002815,-0.000000,-0.000000,0.000000,0.002494,1547131076108061,1547131075858718
1547131076485059,1547131076233249,1.762755,-0.006388,-0.000000,-0.000000,-0.000000,0.002261,1547131076358552,1547131076108061
1547131076738120,1547131076485059,1.820193,-0.000574,-0.000000,0.000000,-0.000000,0.002474,1547131076611588,1547131076358552
1547131076990174,1547131076738120,1.834768,-0.006270,-0.000000,-0.000000,-0.000000,0.000560,1547131076864897,1547131076611588
1547131077241244,1547131076990174,1.770718,-0.009834,-0.000000,0.000000,0.000000,-0.001452,1547131077115770,1547131076864897
1547131077491895,1547131077241244,1.738553,-0.011408,-0.000000,0.000000,0.000000,-0.003572,1547131077366979,1547131077115770
1547131077741138,1547131077491895,1.761696,-0.015014,-0.000000,0.000000,-0.000000,-0.004833,1547131077617111,1547131077366979
1547131077990125,1547131077741138,1.962137,-0.010509,-0.000000,0.000000,-0.000000,-0.004818,1547131077865264,1547131077617111
1547131078239573,1547131077990125,1.974875,-0.012545,-0.000000,0.000000,-0.000000,-0.004111,1547131078115107,1547131077865264
1547131078488484,1547131078239573,2.016762,-0.010929,-0.000000,-0.000000,-0.000000,-0.003546,1547131078364361,1547131078115107
1547131078737143,1547131078488484,2.003098,-0.006365,-0.000000,0.000000,-0.000000,-0.003566,1547131078612843,1547131078364361
1547131078985403,1547131078737143,2.021371,-0.009975,-0.000000,-0.000000,-0.000000,-0.001397,1547131078861710,1547131078612843
1547131079233245,1547131078985403,2.089226,-0.011073,-0.000000,-0.000000,-0.000000,-0.002108,1547131079109353,1547131078861710
1547131079481120,1547131079233245,2.088405,-0.006182,-0.000000,-0.000000,-0.000000,-0.001594,1547131079357264,1547131079109353
1547131079729451,1547131079481120,2.121011,-0.012030,-0.000000,0.000000,-0.000000,-0.003249,1547131079605377,1547131079357264
1547131079978896,1547131079729451,2.159394,-0.011935,-0.000000,0.000000,0.000000,-0.002214,1547131079853531,1547131079605377
1547131080229644,1547131079978896,2.117311,-0.012565,-0.000000,-0.000000,-0.000000,-0.003025,1547131080104619,1547131079853531
1547131080480037,1547131080229644,2.110996,-0.011805,-0.000000,-0.000000,0.000000,-0.002870,1547131080354800,1547131080104619
1547131080729975,1547131080480037,2.131324,-0.013578,-0.000000,-0.000000,-0.000000,-0.003486,1547131080605427,1547131080354800
1547131080979786,1547131080729975,2.142715,-0.009552,-0.000000,0.000000,0.000000,-0.003581,1547131080854773,1547131080605427
1547131081229870,1547131080979786,2.161063,-0.013457,-0.000000,-0.000000,0.000000,-0.006184,1547131081104927,1547131080854773
1547131081480673,1547131081229870,2.175041,-0.012611,-0.000000,-0.000000,-0.000000,-0.005280,1547131081354822,1547131081104927
1547131081733078,1547131081480673,2.207223,-0.017482,-0.000000,-0.000000,-0.000000,-0.005792,1547131081606905,1547131081354822
1547131081984989,1547131081733078,2.158260,-0.020932,-0.000000,-0.000000,-0.000000,-0.006438,1547131081859432,1547131081606905
1547131082236221,1547131081984989,2.243134,-0.021580,-0.000000,-0.000000,-0.000000,-0.006269,1547131082110785,1547131081859432
1547131082487004,1547131082236221,2.276315,-0.022370,-0.000000,-0.000000,-0.000000,-0.007225,1547131082361928,1547131082110785
1547131082737712,1547131082487004,2.286637,-0.017921,-0.000000,0.000000,-0.000000,-0.005417,1547131082612188,1547131082361928
1547131082988751,1547131082737712,2.318344,-0.016009,-0.000000,0.000000,-0.000000,-0.008325,1547131082863407,1547131082612188
1547131083239188,1547131082988751,2.283638,-0.024996,-0.000000,-0.000000,0.000000,-0.008079,1547131083114209,1547131082863407
1547131083489219,1547131083239188,2.219279,-0.022599,-0.000000,0.000000,0.000000,-0.009091,1547131083364175,1547131083114209
1547131083738833,1547131083489219,2.265183,-0.027258,-0.000000,0.000000,-0.000000,-0.009104,1547131083614271,1547131083364175
1547131083988280,1547131083738833,2.328796,-0.019200,-0.000000,0.000000,-0.000000,-0.009939,1547131083863650,1547131083614271
1547131084237807,1547131083988280,2.356341,-0.017481,-0.000000,0.000000,-0.000000,-0.007934,1547131084112934,1547131083863650
1547131084487054,1547131084237807,2.355924,-0.014437,-0.000000,-0.000000,-0.000000,-0.005116,1547131084362825,1547131084112934
1547131084736537,1547131084487054,2.229794,-0.008585,-0.000000,0.000000,0.000000,-0.003837,1547131084611360,1547131084362825
1547131084987365,1547131084736537,2.237821,-0.014037,-0.000000,-0.000000,0.000000,-0.002651,1547131084862116,1547131084611360
1547131085237503,1547131084987365,2.283813,-0.010625,-0.000000,-0.000000,-0.000000,-0.002412,1547131085112861,1547131084862116
1547131085487483,1547131085237503,2.246564,-0.010224,-0.000000,0.000000,-0.000000,-0.001192,1547131085362384,1547131085112861
1547131085737236,1547131085487483,2.264517,-0.004102,-0.000000,0.000000,-0.000000,-0.000209,1547131085612683,1547131085362384
1547131085987387,1547131085737236,2.279835,-0.005687,-0.000000,-0.000000,-0.000000,0.000057,1547131085861796,1547131085612683
1547131086239617,1547131085987387,2.326491,-0.003543,-0.000000,-0.000000,0.000000,-0.000175,1547131086113228,1547131085861796
1547131086492122,1547131086239617,2.351618,-0.007097,-0.000000,-0.000000,0.000000,-0.000655,1547131086366014,1547131086113228
1547131086744192,1547131086492122,2.360378,-0.005997,-0.000000,-0.000000,-0.000000,0.000093,1547131086618566,1547131086366014
1547131086995555,1547131086744192,2.367819,-0.006307,-0.000000,0.000000,-0.000000,0.001880,1547131086870128,1547131086618566
1547131087245666,1547131086995555,2.341952,0.002556,-0.000000,-0.000000,-0.000000,0.001994,1547131087120989,1547131086870128
1547131087495032,1547131087245666,2.366235,-0.005094,-0.000000,-0.000000,-0.000000,0.002197,1547131087370482,1547131087120989
1547131087744032,1547131087495032,2.326517,-0.009067,-0.000000,0.000000,0.000000,0.003337,1547131087619613,1547131087370482
1547131087992977,1547131087744032,2.385307,-0.013530,-0.000000,-0.000000,0.000000,0.004351,1547131087868602,1547131087619613
1547131088241700,1547131087992977,2.665490,-0.008965,-0.000000,-0.000000,-0.000000,0.004825,1547131088117627,1547131087868602
1547131088490071,1547131088241700,2.366156,-0.007026,-0.000000,0.000000,-0.000000,0.003952,1547131088365924,1547131088117627
1547131088738605,1547131088490071,2.294759,-0.011568,-0.000000,0.000000,-0.000000,0.002598,1547131088614481,1547131088365924
1547131088986579,1547131088738605,2.383601,-0.012064,-0.000000,-0.000000,-0.000000,0.002423,1547131088862972,1547131088614481
1547131089234251,1547131088986579,2.410918,-0.013666,-0.000000,-0.000000,-0.000000,0.003252,1547131089110526,1547131088862972
1547131089481958,1547131089234251,2.463508,-0.017545,-0.000000,-0.000000,0.000000,0.004181,1547131089358259,1547131089110526
1547131089730255,1547131089481958,2.515108,-0.012853,-0.000000,0.000000,-0.000000,0.003800,1547131089605826,1547131089358259
1547131089980197,1547131089730255,2.525864,-0.010642,-0.000000,0.000000,0.000000,0.005238,1547131089854691,1547131089605826
1547131090232733,1547131089980197,2.491676,-0.006231,-0.000000,-0.000000,0.000000,0.004005,1547131090105853,1547131089854691
1547131090486086,1547131090232733,2.436193,-0.009441,-0.000000,0.000000,-0.000000,0.002058,1547131090359744,1547131090105853
1547131090739182,1547131090486086,2.396036,-0.019263,-0.000000,0.000000,0.000000,0.002046,1547131090612659,1547131090359744
1547131090991979,1547131090739182,2.400634,-0.015657,-0.000000,0.000000,-0.000000,0.001019,1547131090866023,1547131090612659
1547131091243405,1547131090991979,2.400824,-0.023058,-0.000000,-0.000000,-0.000000,-0.000194,1547131091118237,1547131090866023
1547131091494043,1547131091243405,2.330169,-0.018614,-0.000000,0.000000,0.000000,-0.000291,1547131091368837,1547131091118237
1547131091745292,1547131091494043,2.161762,-0.014069,-0.000000,0.000000,-0.000000,-0.000147,1547131091619615,1547131091368837
1547131091995979,1547131091745292,2.107421,-0.014062,-0.000000,0.000000,0.000000,0.000662,1547131091871233,1547131091619615
1547131092245993,1547131091995979,2.052287,-0.006767,-0.000000,0.000000,-0.000000,0.003147,1547131092120986,1547131091871233
1547131092496519,1547131092245993,2.175437,-0.004065,-0.000000,-0.000000,0.000000,0.001419,1547131092371333,1547131092120986
1547131092746316,1547131092496519,2.192215,-0.015889,-0.000000,0.000000,-0.000000,0.000351,1547131092621864,1547131092371333
1547131092995337,1547131092746316,2.134221,-0.023528,-0.000000,-0.000000,-0.000000,-0.000777,1547131092870913,1547131092621864
1547131093244836,1547131092995337,1.982441,-0.015066,-0.000000,0.000000,-0.000000,-0.002228,1547131093120016,1547131092870913
1547131093494229,1547131093244836,1.887959,-0.010258,-0.000000,0.000000,-0.000000,-0.002355,1547131093369913,1547131093120016
1547131093742953,1547131093494229,1.853915,-0.026119,-0.000000,0.000000,0.000000,-0.001773,1547131093618792,1547131093369913
1547131093991587,1547131093742953,1.796444,-0.023195,-0.000000,0.000000,0.000000,-0.002098,1547131093867389,1547131093618792
1547131094239964,1547131093991587,1.664598,-0.017885,-0.000000,0.000000,-0.000000,-0.002465,1547131094115921,1547131093867389
1547131094488113,1547131094239964,1.581694,-0.020765,-0.000000,0.000000,-0.000000,-0.006194,1547131094364274,1547131094115921
1547131094736109,1547131094488113,1.517358,-0.031910,-0.000000,0.000000,0.000000,-0.014230,1547131094612215,1547131094364274
1547131094983495,1547131094736109,1.407143,-0.048940,-0.000000,-0.000000,-0.000000,-0.024001,1547131094860257,1547131094612215
1547131095231120,1547131094983495,1.323811,-0.054421,-0.000000,0.000000,-0.000000,-0.031449,1547131095106990,1547131094860257
1547131095481780,1547131095231120,1.249903,-0.066466,-0.000000,-0.000000,-0.000000,-0.040231,1547131095355514,1547131095106990
1547131095734084,1547131095481780,1.171749,-0.075643,-0.000000,0.000000,-0.000000,-0.047995,1547131095608316,1547131095355514
1547131095985888,1547131095734084,1.045702,-0.084706,-0.000000,0.000000,-0.000000,-0.061615,1547131095860137,1547131095608316
1547131096238346,1547131095985888,0.957403,-0.095144,-0.000000,0.000000,0.000000,-0.070041,1547131096111649,1547131095860137
1547131096492330,1547131096238346,0.870667,-0.102872,-0.000000,0.000000,-0.000000,-0.073730,1547131096365440,1547131096111649
1547131096745423,1547131096492330,0.767597,-0.095383,-0.000000,0.000000,0.000000,-0.071595,1547131096619227,1547131096365440
1547131096997458,1547131096745423,0.677139,-0.082641,-0.000000,0.000000,-0.000000,-0.064259,1547131096871885,1547131096619227
1547131097247555,1547131096997458,0.637903,-0.065256,-0.000000,0.000000,0.000000,-0.055465,1547131097123304,1547131096871885
1547131097495362,1547131097247555,0.544648,-0.051867,-0.000000,0.000000,-0.000000,-0.047273,1547131097371955,1547131097123304
1547131097742200,1547131097495362,0.434778,-0.045380,-0.000000,0.000000,0.000000,-0.039082,1547131097618777,1547131097371955
1547131097988907,1547131097742200,0.346374,-0.035563,-0.000000,0.000000,-0.000000,-0.031803,1547131097865631,1547131097618777
1547131098236416,1547131097988907,0.277564,-0.027222,-0.000000,0.000000,-0.000000,-0.024978,1547131098112417,1547131097865631
1547131098485406,1547131098236416,0.227553,-0.024314,-0.000000,-0.000000,-0.000000,-0.021265,1547131098360557,1547131098112417
1547131098735436,1547131098485406,0.205614,-0.018683,-0.000000,-0.000000,-0.000000,-0.019417,1547131098610263,1547131098360557
1547131098985535,1547131098735436,0.190474,-0.016286,-0.000000,-0.000000,-0.000000,-0.017077,1547131098860745,1547131098610263
1547131099234931,1547131098985535,0.161680,-0.015071,-0.000000,-0.000000,0.000000,-0.014370,1547131099110576,1547131098860745
1547131099483670,1547131099234931,0.141722,-0.019192,-0.000000,0.000000,0.000000,-0.011896,1547131099359385,1547131099110576
1547131099732537,1547131099483670,0.093575,-0.009946,-0.000000,0.000000,0.000000,-0.009558,1547131099608191,1547131099359385
1547131099981504,1547131099732537,0.073613,-0.005008,-0.000000,0.000000,0.000000,-0.007454,1547131099857154,1547131099608191
1547131100231514,1547131099981504,0.067163,-0.001793,0.000000,-0.000000,-0.000000,-0.005936,1547131100105929,1547131099857154
1547131100482722,1547131100231514,0.060441,-0.005807,-0.000000,-0.000000,0.000000,-0.004724,1547131100357350,1547131100105929
1547131100733205,1547131100482722,0.033641,-0.002740,-0.000000,-0.000000,-0.000000,-0.002821,1547131100608192,1547131100357350
1547131100983503,1547131100733205,0.024230,-0.002275,-0.000000,-0.000000,-0.000000,-0.002889,1547131100858474,1547131100608192
1547131101234639,1547131100983503,0.043157,-0.003792,-0.000000,-0.000000,-0.000000,-0.004601,1547131101108766,1547131100858474
1547131101487097,1547131101234639,0.089154,-0.011154,-0.000000,-0.000000,-0.000000,-0.007111,1547131101360653,1547131101108766
1547131101739547,1547131101487097,0.091780,-0.006131,-0.000000,-0.000000,-0.000000,-0.009471,1547131101613813,1547131101360653
1547131101991642,1547131101739547,0.125040,-0.015016,-0.000000,-0.000000,-0.000000,-0.010112,1547131101865611,1547131101613813
1547131102243513,1547131101991642,0.124817,-0.011011,-0.000000,0.000000,-0.000000,-0.010284,1547131102117787,1547131101865611
1547131102494275,1547131102243513,0.098495,-0.006988,-0.000000,0.000000,0.000000,-0.010087,1547131102369760,1547131102117787
1547131102743096,1547131102494275,0.107574,-0.011490,-0.000000,-0.000000,0.000000,-0.009438,1547131102619099,1547131102369760
1547131102991595,1547131102743096,0.094093,-0.005780,-0.000000,0.000000,-0.000000,-0.008699,1547131102867356,1547131102619099
1547131103239901,1547131102991595,0.070685,-0.009248,-0.000000,-0.000000,-0.000000,-0.006290,1547131103116075,1547131102867356
1547131103487566,1547131103239901,0.055015,-0.003906,-0.000000,0.000000,-0.000000,-0.004385,1547131103363964,1547131103116075
1547131103735303,1547131103487566,0.056424,-0.003786,-0.000000,0.000000,0.000000,-0.005055,1547131103611488,1547131103363964
1547131103983468,1547131103735303,0.077259,-0.004504,-0.000000,0.000000,0.000000,-0.007112,1547131103859270,1547131103611488
1547131104232856,1547131103983468,0.090827,-0.007286,-0.000000,-0.000000,-0.000000,-0.007658,1547131104107921,1547131103859270
1547131104483531,1547131104232856,0.095329,-0.012905,0.000000,0.000000,-0.000000,-0.007440,1547131104358065,1547131104107921
1547131104734099,1547131104483531,0.083613,-0.010324,0.000000,0.000000,0.000000,-0.008775,1547131104609231,1547131104358065
1547131104984114,1547131104734099,0.118952,-0.007804,-0.000000,-0.000000,0.000000,-0.010791,1547131104859283,1547131104609231
1547131105235830,1547131104984114,0.129914,-0.017651,-0.000000,0.000000,-0.000000,-0.012587,1547131105109287,1547131104859283
1547131105488451,1547131105235830,0.146457,-0.015512,-0.000000,-0.000000,0.000000,-0.015244,1547131105362381,1547131105109287
1547131105740571,1547131105488451,0.180434,-0.011580,-0.000000,-0.000000,0.000000,-0.017603,1547131105614663,1547131105362381
1547131105992623,1547131105740571,0.247503,-0.028968,-0.000000,0.000000,-0.000000,-0.022795,1547131105866783,1547131105614663
1547131106243487,1547131105992623,0.286756,-0.035488,-0.000000,-0.000000,-0.000000,-0.032825,1547131106118569,1547131105866783
1547131106493184,1547131106243487,0.338527,-0.046333,-0.000000,0.000000,0.000000,-0.045684,1547131106368667,1547131106118569
1547131106743460,1547131106493184,0.385759,-0.064063,-0.000000,0.000000,0.000000,-0.061700,1547131106617948,1547131106368667
1547131106994738,1547131106743460,0.459980,-0.088156,-0.000000,0.000000,0.000000,-0.076004,1547131106869257,1547131106617948
1547131107245721,1547131106994738,0.518809,-0.106344,-0.000000,0.000000,0.000000,-0.088655,1547131107120530,1547131106869257
1547131107496765,1547131107245721,0.590898,-0.116154,-0.000000,0.000000,0.000000,-0.099982,1547131107371173,1547131107120530
1547131107747678,1547131107496765,0.670031,-0.141076,-0.000000,0.000000,-0.000000,-0.115619,1547131107622612,1547131107371173
1547131107998444,1547131107747678,0.755508,-0.151795,-0.000000,0.000000,-0.000000,-0.124088,1547131107873001,1547131107622612
1547131108249450,1547131107998444,0.803603,-0.177265,-0.000000,0.000000,-0.000000,-0.133008,1547131108124154,1547131107873001
1547131108499498,1547131108249450,0.885371,-0.179517,-0.000000,-0.000000,-0.000000,-0.138174,1547131108374754,1547131108124154
1547131108749356,1547131108499498,0.970608,-0.182872,0.000000,0.000000,-0.000000,-0.131457,1547131108624357,1547131108374754
1547131108998612,1547131108749356,1.034655,-0.179517,-0.000000,0.000000,0.000000,-0.126033,1547131108874485,1547131108624357
1547131109247223,1547131108998612,1.120485,-0.175093,-0.000000,-0.000000,-0.000000,-0.125268,1547131109123023,1547131108874485
1547131109495186,1547131109247223,1.184070,-0.175176,-0.000000,0.000000,-0.000000,-0.116009,1547131109371691,1547131109123023
1547131109742593,1547131109495186,1.272597,-0.146072,-0.000000,0.000000,-0.000000,-0.097363,1547131109618823,1547131109371691
1547131109991530,1547131109742593,1.357007,-0.106007,-0.000000,0.000000,0.000000,-0.069191,1547131109866630,1547131109618823
1547131110241360,1547131109991530,1.450905,-0.081194,-0.000000,-0.000000,-0.000000,-0.046536,1547131110116726,1547131109866630
1547131110490727,1547131110241360,1.531923,-0.047678,-0.000000,-0.000000,-0.000000,-0.027466,1547131110366338,1547131110116726
1547131110739991,1547131110490727,1.586541,-0.037482,-0.000000,-0.000000,-0.000000,-0.023284,1547131110615440,1547131110366338
1547131110988674,1547131110739991,1.580040,-0.031671,-0.000000,-0.000000,-0.000000,-0.014221,1547131110864562,1547131110615440
1547131111237480,1547131110988674,1.662354,-0.014335,-0.000000,-0.000000,-0.000000,-0.007590,1547131111112930,1547131110864562
1547131111487410,1547131111237480,1.812918,-0.016960,-0.000000,-0.000000,-0.000000,-0.003796,1547131111362166,1547131111112930
1547131111738179,1547131111487410,1.879011,-0.012335,-0.000000,-0.000000,0.000000,-0.001885,1547131111612838,1547131111362166
1547131111988756,1547131111738179,1.879930,-0.007435,-0.000000,-0.000000,0.000000,-0.001989,1547131111863708,1547131111612838
1547131112238727,1547131111988756,1.967189,-0.013741,-0.000000,0.000000,-0.000000,-0.000525,1547131112114110,1547131111863708
1547131112488400,1547131112238727,2.065028,-0.013151,-0.000000,-0.000000,-0.000000,-0.002007,1547131112363488,1547131112114110
1547131112738675,1547131112488400,2.134920,-0.012102,-0.000000,0.000000,-0.000000,-0.001349,1547131112613638,1547131112363488
1547131112988263,1547131112738675,2.145416,-0.010574,-0.000000,0.000000,-0.000000,-0.000191,1547131112863833,1547131112613638
1547131113237396,1547131112988263,2.186825,-0.013743,-0.000000,0.000000,-0.000000,-0.000446,1547131113112831,1547131112863833
1547131113486655,1547131113237396,2.174349,-0.007777,-0.000000,-0.000000,-0.000000,-0.001526,1547131113362210,1547131113112831
1547131113735256,1547131113486655,2.183417,-0.012559,-0.000000,0.000000,-0.000000,-0.001142,1547131113611320,1547131113362210
1547131113983391,1547131113735256,2.152035,-0.021684,-0.000000,0.000000,-0.000000,-0.001639,1547131113859505,1547131113611320
1547131114231154,1547131113983391,2.086884,-0.009887,0.000000,-0.000000,-0.000000,-0.000989,1547131114107286,1547131113859505
1547131114479155,1547131114231154,2.001332,-0.015208,-0.000000,0.000000,-0.000000,-0.001400,1547131114355488,1547131114107286
1547131114727669,1547131114479155,2.051811,-0.006320,-0.000000,0.000000,-0.000000,0.000031,1547131114603101,1547131114355488
1547131114978300,1547131114727669,2.062185,-0.007206,-0.000000,-0.000000,-0.000000,-0.000421,1547131114852499,1547131114603101
1547131115228878,1547131114978300,2.015155,-0.007029,-0.000000,-0.000000,0.000000,0.000183,1547131115104461,1547131114852499
1547131115478493,1547131115228878,1.966047,-0.006341,-0.000000,-0.000000,0.000000,0.000074,1547131115353431,1547131115104461
1547131115728957,1547131115478493,1.921583,-0.006075,-0.000000,-0.000000,0.000000,0.000058,1547131115603823,1547131115353431
1547131115980014,1547131115728957,1.888856,-0.006840,-0.000000,-0.000000,0.000000,0.000638,1547131115854100,1547131115603823
1547131116232397,1547131115980014,1.864377,-0.004466,-0.000000,0.000000,-0.000000,-0.001729,1547131116106040,1547131115854100
1547131116484948,1547131116232397,1.828665,-0.007210,0.000000,0.000000,-0.000000,-0.001564,1547131116359023,1547131116106040
1547131116736546,1547131116484948,1.813853,-0.010151,-0.000000,-0.000000,-0.000000,-0.001454,1547131116611170,1547131116359023
1547131116986955,1547131116736546,1.801246,-0.007081,-0.000000,0.000000,-0.000000,-0.000037,1547131116861945,1547131116611170
1547131117235714,1547131116986955,1.763939,-0.006707,-0.000000,0.000000,-0.000000,-0.001023,1547131117112202,1547131116861945
1547131117483485,1547131117235714,1.692738,-0.001632,-0.000000,0.000000,-0.000000,-0.000148,1547131117359485,1547131117112202
1547131117731697,1547131117483485,1.623512,-0.002559,-0.000000,0.000000,-0.000000,-0.000023,1547131117607773,1547131117359485
1547131117979868,1547131117731697,1.655827,-0.000633,-0.000000,-0.000000,-0.000000,0.000848,1547131117855767,1547131117607773
1547131118227914,1547131117979868,1.606935,-0.007712,-0.000000,0.000000,-0.000000,0.000731,1547131118104286,1547131117855767
1547131118475741,1547131118227914,1.534607,-0.002854,-0.000000,-0.000000,-0.000000,0.000344,1547131118351679,1547131118104286
1547131118725220,1547131118475741,1.498976,-0.000180,-0.000000,0.000000,0.000000,-0.000254,1547131118600070,1547131118351679
1547131118974854,1547131118725220,1.457690,-0.003262,-0.000000,-0.000000,-0.000000,-0.000631,1547131118850378,1547131118600070
1547131119223615,1547131118974854,1.420369,-0.004011,-0.000000,0.000000,-0.000000,-0.001618,1547131119099338,1547131118850378
1547131119473065,1547131119223615,1.366349,-0.002794,-0.000000,0.000000,-0.000000,-0.001583,1547131119348026,1547131119099338
1547131119723450,1547131119473065,1.338241,-0.005201,-0.000000,-0.000000,-0.000000,-0.001705,1547131119598112,1547131119348026
1547131119974047,1547131119723450,1.304387,-0.005847,-0.000000,0.000000,-0.000000,-0.002599,1547131119849171,1547131119598112
1547131120224503,1547131119974047,1.252598,-0.008521,-0.000000,-0.000000,-0.000000,-0.002600,1547131120099018,1547131119849171
1547131120474978,1547131120224503,1.203390,-0.004985,-0.000000,-0.000000,0.000000,-0.002629,1547131120350132,1547131120099018
1547131120725890,1547131120474978,1.135545,-0.004812,-0.000000,-0.000000,0.000000,-0.001603,1547131120599923,1547131120350132
1547131120978856,1547131120725890,1.085455,-0.004154,0.000000,0.000000,-0.000000,-0.002505,1547131120852097,1547131120599923
1547131121231820,1547131120978856,1.024391,-0.004114,-0.000000,-0.000000,-0.000000,-0.002317,1547131121105912,1547131120852097
1547131121484043,1547131121231820,0.955098,-0.001752,0.000000,-0.000000,-0.000000,-0.002781,1547131121357975,1547131121105912
1547131121735180,1547131121484043,0.890434,-0.008760,-0.000000,0.000000,-0.000000,-0.001593,1547131121610394,1547131121357975
1547131121984019,1547131121735180,0.828278,-0.003318,-0.000000,-0.000000,-0.000000,-0.002541,1547131121859976,1547131121610394
1547131122232284,1547131121984019,0.777265,-0.002823,-0.000000,-0.000000,-0.000000,-0.002028,1547131122108300,1547131121859976
1547131122480701,1547131122232284,0.716714,-0.001965,-0.000000,-0.000000,-0.000000,-0.001512,1547131122356604,1547131122108300
1547131122728718,1547131122480701,0.658570,-0.000753,-0.000000,0.000000,0.000000,-0.001431,1547131122604934,1547131122356604
1547131122976435,1547131122728718,0.603308,-0.003483,-0.000000,0.000000,0.000000,-0.000992,1547131122852986,1547131122604934
1547131123224661,1547131122976435,0.507969,-0.001817,-0.000000,0.000000,-0.000000,-0.001343,1547131123100147,1547131122852986
1547131123474069,1547131123224661,0.425674,-0.006829,-0.000000,0.000000,0.000000,-0.001264,1547131123349432,1547131123100147
1547131123723136,1547131123474069,0.342198,-0.008737,-0.000000,0.000000,-0.000000,-0.000574,1547131123598716,1547131123349432
1547131123972109,1547131123723136,0.308728,0.001369,-0.000000,-0.000000,-0.000000,-0.000669,1547131123847828,1547131123598716
1547131124221550,1547131123972109,0.233884,0.000133,-0.000000,0.000000,-0.000000,-0.000750,1547131124096654,1547131123847828
1547131124472491,1547131124221550,0.263790,-0.000888,-0.000000,-0.000000,-0.000000,-0.000621,1547131124346553,1547131124096654
1547131124723913,1547131124472491,0.172268,0.001363,-0.000000,0.000000,0.000000,-0.000473,1547131124598438,1547131124346553
1547131124974775,1547131124723913,0.173184,0.001379,-0.000000,-0.000000,0.000000,-0.000523,1547131124849662,1547131124598438
1547131125225335,1547131124974775,0.154249,0.001281,-0.000000,0.000000,-0.000000,-0.000479,1547131125100020,1547131124849662
1547131125477315,1547131125225335,0.135444,0.000019,-0.000000,0.000000,0.000000,-0.000327,1547131125350748,1547131125100020
1547131125730720,1547131125477315,0.064808,0.000240,-0.000000,-0.000000,-0.000000,-0.000473,1547131125604281,1547131125350748
1547131125983183,1547131125730720,0.054120,-0.001037,-0.000000,-0.000000,-0.000000,-0.000157,1547131125857277,1547131125604281
1547131126234416,1547131125983183,0.043236,-0.000352,-0.000000,0.000000,0.000000,-0.000085,1547131126109244,1547131125857277
1547131126483657,1547131126234416,0.027564,-0.000090,-0.000000,-0.000000,0.000000,-0.000111,1547131126359852,1547131126109244
1547131126730943,1547131126483657,0.023593,-0.000183,-0.000000,0.000000,-0.000000,-0.000012,1547131126607738,1547131126359852
1547131126977845,1547131126730943,0.022345,-0.000174,-0.000000,-0.000000,0.000000,0.000015,1547131126854269,1547131126607738
1547131127225006,1547131126977845,0.013046,0.000171,-0.000000,-0.000000,-0.000000,-0.000027,1547131127101678,1547131126854269
1547131127472678,1547131127225006,0.004813,0.000299,-0.000000,-0.000000,-0.000000,-0.000049,1547131127348602,1547131127101678
1547131127721649,1547131127472678,0.000310,-0.000054,-0.000000,0.000000,0.000000,0.000017,1547131127597029,1547131127348602
1547131127971348,1547131127721649,0.000345,-0.000155,-0.000000,-0.000000,-0.000000,0.000013,1547131127846386,1547131127597029
1547131128222246,1547131127971348,0.000364,-0.000119,-0.000000,0.000000,-0.000000,0.000014,1547131128096812,1547131127846386
1547131128473266,1547131128222246,0.000371,-0.000093,-0.000000,-0.000000,-0.000000,0.000016,1547131128347948,1547131128096812
1547131128723526,1547131128473266,0.000489,-0.000019,-0.000000,0.000000,0.000000,-0.000001,1547131128598847,1547131128347948
1547131128974033,1547131128723526,0.000362,-0.000114,-0.000000,0.000000,0.000000,0.000017,1547131128848473,1547131128598847
1547131129226378,1547131128974033,0.000444,-0.000030,-0.000000,-0.000000,-0.000000,0.000012,1547131129099867,1547131128848473
1547131129478897,1547131129226378,0.000350,-0.000095,-0.000000,-0.000000,-0.000000,0.000009,1547131129353159,1547131129099867
1547131129730864,1547131129478897,0.000336,-0.000076,-0.000000,-0.000000,-0.000000,0.000021,1547131129604643,1547131129353159
1547131129982917,1547131129730864,0.000030,-0.000150,0.000000,0.000000,-0.000000,0.000025,1547131129857094,1547131129604643
1547131130234542,1547131129982917,-0.000485,-0.000165,-0.000000,-0.000000,-0.000000,0.000022,1547131130108876,1547131129857094
1547131130486133,1547131130234542,-0.000590,-0.000126,-0.000000,-0.000000,-0.000000,0.000015,1547131130360478,1547131130108876
1547131130737540,1547131130486133,-0.000251,0.000188,-0.000000,-0.000000,-0.000000,-0.000032,1547131130611938,1547131130360478
1547131130987721,1547131130737540,-0.000132,0.000252,-0.000000,-0.000000,-0.000000,-0.000028,1547131130863280,1547131130611938
1547131131236646,1547131130987721,0.000499,0.000287,-0.000000,0.000000,-0.000000,-0.000030,1547131131112548,1547131130863280
1547131131485246,1547131131236646,0.001210,0.000278,-0.000000,-0.000000,-0.000000,-0.000020,1547131131360878,1547131131112548
1547131131733729,1547131131485246,0.001357,0.000311,-0.000000,0.000000,-0.000000,-0.000019,1547131131609622,1547131131360878
1547131131982036,1547131131733729,0.001205,0.000319,-0.000000,-0.000000,-0.000000,-0.000010,1547131131857946,1547131131609622
1547131132230220,1547131131982036,0.001284,0.000367,-0.000000,0.000000,0.000000,-0.000026,1547131132106136,1547131131857946
1547131132478149,1547131132230220,0.001254,0.000278,0.000000,-0.000000,-0.000000,-0.000012,1547131132354560,1547131132106136
1547131132725819,1547131132478149,0.001444,0.000275,-0.000000,-0.000000,-0.000000,-0.000010,1547131132601861,1547131132354560
1547131132974598,1547131132725819,0.002474,0.000078,-0.000000,-0.000000,0.000000,0.000032,1547131132850050,1547131132601861
1547131133223732,1547131132974598,0.002487,0.000086,-0.000000,-0.000000,-0.000000,0.000036,1547131133099263,1547131132850050
1547131133472732,1547131133223732,0.010635,-0.000348,-0.000000,0.000000,-0.000000,-0.000062,1547131133348209,1547131133099263
1547131133722532,1547131133472732,0.015239,-0.000478,-0.000000,0.000000,-0.000000,-0.000066,1547131133597659,1547131133348209
