source_timestamp,destination_timestamp,x,y,z,roll,pitch,yaw,source_radar_timestamp,destination_radar_timestamp
1547120788016733,1547120787769098,0.000191,0.000022,-0.000000,-0.000000,-0.000000,0.000001,1547120787893007,1547120787645464
1547120788264696,1547120788016733,-0.000054,-0.000005,-0.000000,-0.000000,0.000000,-0.000013,1547120788140671,1547120787893007
1547120788513790,1547120788264696,0.000006,-0.000007,-0.000000,-0.000000,-0.000000,0.000001,1547120788388907,1547120788140671
1547120788764097,1547120788513790,-0.000044,-0.000014,0.000000,0.000000,-0.000000,0.000005,1547120788638924,1547120788388907
1547120789014721,1547120788764097,-0.000158,0.000001,-0.000000,0.000000,0.000000,-0.000002,1547120788889461,1547120788638924
1547120789265343,1547120789014721,-0.000068,0.000091,-0.000000,0.000000,-0.000000,-0.000006,1547120789140229,1547120788889461
1547120789515435,1547120789265343,-0.000012,-0.000014,-0.000000,-0.000000,-0.000000,0.000009,1547120789390707,1547120789140229
1547120789765154,1547120789515435,-0.000228,0.000035,-0.000000,-0.000000,0.000000,0.000006,1547120789640420,1547120789390707
1547120790015995,1547120789765154,0.000029,0.000013,-0.000000,0.000000,0.000000,-0.000001,1547120789890123,1547120789640420
1547120790267629,1547120790015995,-0.000148,-0.000047,-0.000000,-0.000000,0.000000,0.000009,1547120790141872,1547120789890123
1547120790519173,1547120790267629,0.000098,-0.000012,-0.000000,-0.000000,-0.000000,-0.000004,1547120790393559,1547120790141872
1547120790770225,1547120790519173,-0.000008,-0.000029,-0.000000,0.000000,-0.000000,-0.000004,1547120790644908,1547120790393559
1547120791021371,1547120790770225,0.000046,-0.000006,-0.000000,-0.000000,-0.000000,0.000002,1547120790895701,1547120790644908
1547120791273822,1547120791021371,0.000251,0.000055,-0.000000,-0.000000,-0.000000,-0.000025,1547120791147050,1547120790895701
1547120791527537,1547120791273822,-0.000022,-0.000008,-0.000000,0.000000,-0.000000,0.000004,1547120791400962,1547120791147050
1547120791780078,1547120791527537,0.000040,-0.000014,-0.000000,0.000000,0.000000,0.000007,1547120791654119,1547120791400962
1547120792030808,1547120791780078,0.000013,0.000001,-0.000000,-0.000000,0.000000,0.000002,1547120791906045,1547120791654119
1547120792279322,1547120792030808,-0.000092,-0.000020,-0.000000,-0.000000,-0.000000,0.000007,1547120792155710,1547120791906045
1547120792526851,1547120792279322,0.000082,-0.000004,-0.000000,-0.000000,0.000000,-0.000003,1547120792403163,1547120792155710
1547120792774589,1547120792526851,0.000047,-0.000005,-0.000000,-0.000000,-0.000000,0.000003,1547120792650704,1547120792403163
1547120793022159,1547120792774589,-0.000008,-0.000018,-0.000000,0.000000,0.000000,0.000001,1547120792898567,1547120792650704
1547120793270217,1547120793022159,0.000016,-0.000005,-0.000000,-0.000000,0.000000,-0.000005,1547120793146062,1547120792898567
1547120793519397,1547120793270217,0.000059,-0.000002,-0.000000,0.000000,-0.000000,-0.000003,1547120793394382,1547120793146062
1547120793770154,1547120793519397,0.000062,0.000030,-0.000000,0.000000,0.000000,-0.000003,1547120793644519,1547120793394382
1547120794021215,1547120793770154,0.000029,-0.000041,-0.000000,0.000000,0.000000,0.000001,1547120793896087,1547120793644519
1547120794271697,1547120794021215,-0.000069,-0.000038,-0.000000,0.000000,0.000000,-0.000002,1547120794146651,1547120793896087
1547120794522111,1547120794271697,-0.000066,-0.000055,-0.000000,-0.000000,-0.000000,0.000008,1547120794397043,1547120794146651
1547120794772018,1547120794522111,0.000043,0.000007,-0.000000,-0.000000,0.000000,0.000000,1547120794647255,1547120794397043
1547120795021706,1547120794772018,0.000076,-0.000064,-0.000000,0.000000,0.000000,0.000005,1547120794897054,1547120794647255
1547120795272382,1547120795021706,-0.000066,0.000002,-0.000000,-0.000000,0.000000,0.000001,1547120795146588,1547120794897054
1547120795524345,1547120795272382,-0.000028,-0.000041,-0.000000,0.000000,0.000000,-0.000000,1547120795398313,1547120795146588
1547120795776089,1547120795524345,0.000050,-0.000001,-0.000000,-0.000000,-0.000000,-0.000003,1547120795650535,1547120795398313
1547120796027418,1547120795776089,0.000006,-0.000039,-0.000000,0.000000,-0.000000,0.000003,1547120795901819,1547120795650535
1547120796278867,1547120796027418,0.000013,0.000001,0.000000,0.000000,0.000000,-0.000002,1547120796153372,1547120795901819
1547120796531087,1547120796278867,0.000161,-0.000003,-0.000000,0.000000,-0.000000,0.000003,1547120796404475,1547120796153372
1547120796784665,1547120796531087,0.000021,-0.000006,0.000000,-0.000000,0.000000,0.000002,1547120796657925,1547120796404475
1547120797037256,1547120796784665,0.000089,0.000001,-0.000000,-0.000000,-0.000000,0.000004,1547120796911667,1547120796657925
1547120797288016,1547120797037256,0.000011,-0.000003,-0.000000,-0.000000,0.000000,0.000002,1547120797163323,1547120796911667
1547120797536538,1547120797288016,-0.000073,-0.000062,-0.000000,-0.000000,0.000000,0.000007,1547120797413069,1547120797163323
1547120797783307,1547120797536538,-0.000013,-0.000042,-0.000000,-0.000000,-0.000000,0.000012,1547120797660133,1547120797413069
1547120798029641,1547120797783307,0.000041,0.000009,-0.000000,0.000000,0.000000,-0.000005,1547120797906638,1547120797660133
1547120798275873,1547120798029641,0.000043,-0.000002,-0.000000,0.000000,-0.000000,-0.000003,1547120798152768,1547120797906638
1547120798522810,1547120798275873,0.000085,-0.000019,-0.000000,-0.000000,-0.000000,-0.000002,1547120798399230,1547120798152768
1547120798770767,1547120798522810,0.000067,0.000053,-0.000000,0.000000,-0.000000,-0.000018,1547120798646513,1547120798399230
1547120799020087,1547120798770767,0.000110,-0.000032,-0.000000,0.000000,-0.000000,0.000005,1547120798895268,1547120798646513
1547120799270373,1547120799020087,-0.000006,-0.000004,-0.000000,0.000000,-0.000000,0.000005,1547120799145029,1547120798895268
1547120799520797,1547120799270373,0.000066,0.000038,-0.000000,0.000000,-0.000000,-0.000006,1547120799395746,1547120799145029
1547120799771135,1547120799520797,-0.000006,-0.000007,-0.000000,-0.000000,0.000000,-0.000006,1547120799645937,1547120799395746
1547120800021300,1547120799771135,0.000017,-0.000021,-0.000000,0.000000,-0.000000,-0.000007,1547120799896504,1547120799645937
1547120800270995,1547120800021300,-0.000254,0.000147,-0.000000,0.000000,-0.000000,0.000001,1547120800146218,1547120799896504
1547120800521391,1547120800270995,-0.000093,-0.000001,-0.000000,-0.000000,0.000000,0.000002,1547120800395921,1547120800146218
1547120800773181,1547120800521391,0.000153,-0.000022,-0.000000,-0.000000,-0.000000,0.000009,1547120800647075,1547120800395921
1547120801025067,1547120800773181,0.000066,0.000023,-0.000000,-0.000000,-0.000000,-0.000005,1547120800899539,1547120800647075
1547120801276377,1547120801025067,0.000042,0.000014,-0.000000,0.000000,-0.000000,0.000001,1547120801150842,1547120800899539
1547120801527483,1547120801276377,0.000041,-0.000051,-0.000000,-0.000000,-0.000000,0.000009,1547120801402208,1547120801150842
1547120801779350,1547120801527483,-0.000026,0.000011,-0.000000,0.000000,0.000000,-0.000006,1547120801652913,1547120801402208
1547120802032934,1547120801779350,-0.000327,0.000103,-0.000000,-0.000000,0.000000,-0.000005,1547120801906017,1547120801652913
1547120802286449,1547120802032934,-0.000105,0.000037,0.000000,-0.000000,-0.000000,0.000005,1547120802160102,1547120801906017
1547120802538505,1547120802286449,-0.000161,0.000046,-0.000000,0.000000,-0.000000,0.000000,1547120802412806,1547120802160102
1547120802788786,1547120802538505,-0.000025,0.000044,-0.000000,0.000000,0.000000,-0.000009,1547120802664309,1547120802412806
1547120803037247,1547120802788786,0.000010,0.000007,-0.000000,-0.000000,-0.000000,0.000002,1547120802913358,1547120802664309
1547120803285165,1547120803037247,0.000020,-0.000067,-0.000000,-0.000000,-0.000000,0.000008,1547120803161382,1547120802913358
1547120803532527,1547120803285165,0.000102,-0.000027,-0.000000,0.000000,-0.000000,0.000001,1547120803409067,1547120803161382
1547120803779896,1547120803532527,-0.000158,-0.000004,-0.000000,-0.000000,0.000000,-0.000007,1547120803656215,1547120803409067
1547120804027984,1547120803779896,0.000019,-0.000043,-0.000000,0.000000,0.000000,-0.000000,1547120803903748,1547120803656215
1547120804277306,1547120804027984,0.000105,0.000021,-0.000000,-0.000000,-0.000000,-0.000004,1547120804152352,1547120803903748
1547120804527691,1547120804277306,-0.000312,0.000047,-0.000000,-0.000000,-0.000000,0.000006,1547120804402496,1547120804152352
1547120804778196,1547120804527691,-0.000000,-0.000005,-0.000000,-0.000000,0.000000,0.000009,1547120804653106,1547120804402496
1547120805028470,1547120804778196,0.000036,0.000043,-0.000000,-0.000000,-0.000000,-0.000000,1547120804903500,1547120804653106
1547120805278340,1547120805028470,0.000175,-0.000053,-0.000000,0.000000,-0.000000,-0.000002,1547120805153448,1547120804903500
1547120805527954,1547120805278340,0.000095,0.000021,-0.000000,-0.000000,0.000000,-0.000006,1547120805403508,1547120805153448
1547120805778401,1547120805527954,0.000015,-0.000006,-0.000000,0.000000,-0.000000,0.000004,1547120805652641,1547120805403508
1547120806030572,1547120805778401,-0.000157,0.000093,-0.000000,-0.000000,-0.000000,-0.000010,1547120805904519,1547120805652641
1547120806282183,1547120806030572,-0.000028,-0.000025,-0.000000,0.000000,0.000000,-0.000003,1547120806156752,1547120805904519
1547120806533240,1547120806282183,0.000024,-0.000013,-0.000000,-0.000000,-0.000000,-0.000003,1547120806407742,1547120806156752
1547120806784666,1547120806533240,0.000124,-0.000027,-0.000000,0.000000,-0.000000,-0.000000,1547120806658990,1547120806407742
1547120807036836,1547120806784666,0.000031,0.000005,-0.000000,0.000000,-0.000000,0.000002,1547120806910593,1547120806658990
1547120807290078,1547120807036836,-0.000126,0.000054,-0.000000,0.000000,0.000000,-0.000001,1547120807163309,1547120806910593
1547120807543366,1547120807290078,0.000213,-0.000018,0.000000,0.000000,0.000000,-0.000008,1547120807417076,1547120807163309
1547120807795546,1547120807543366,-0.000039,0.000050,-0.000000,0.000000,-0.000000,-0.000007,1547120807669756,1547120807417076
1547120808046380,1547120807795546,-0.000197,0.000081,0.000000,0.000000,-0.000000,-0.000008,1547120807921574,1547120807669756
1547120808295145,1547120808046380,-0.000439,0.000031,-0.000000,0.000000,-0.000000,-0.000003,1547120808171425,1547120807921574
1547120808542747,1547120808295145,-0.000023,-0.000009,-0.000000,0.000000,-0.000000,0.000006,1547120808418960,1547120808171425
1547120808790558,1547120808542747,0.000003,-0.000037,-0.000000,0.000000,0.000000,0.000001,1547120808666760,1547120808418960
1547120809038304,1547120808790558,-0.000001,-0.000043,-0.000000,-0.000000,-0.000000,0.000013,1547120808914483,1547120808666760
1547120809286559,1547120809038304,0.000017,-0.000003,-0.000000,0.000000,0.000000,-0.000001,1547120809162344,1547120808914483
1547120809535645,1547120809286559,0.000015,-0.000003,-0.000000,0.000000,-0.000000,-0.000009,1547120809411004,1547120809162344
1547120809785005,1547120809535645,0.000054,0.000005,-0.000000,-0.000000,-0.000000,0.000001,1547120809660388,1547120809411004
1547120810034365,1547120809785005,-0.000169,-0.000011,-0.000000,0.000000,-0.000000,0.000006,1547120809909630,1547120809660388
1547120810283393,1547120810034365,0.000011,0.000020,-0.000000,-0.000000,-0.000000,-0.000005,1547120810159349,1547120809909630
1547120810531906,1547120810283393,-0.000021,-0.000048,-0.000000,0.000000,0.000000,0.000012,1547120810407721,1547120810159349
1547120810780632,1547120810531906,-0.000010,-0.000007,-0.000000,-0.000000,-0.000000,0.000005,1547120810656414,1547120810407721
1547120811030402,1547120810780632,-0.000179,0.000008,-0.000000,-0.000000,0.000000,0.000011,1547120810905153,1547120810656414
1547120811280903,1547120811030402,0.000186,0.000038,-0.000000,0.000000,-0.000000,0.000001,1547120811155900,1547120810905153
1547120811530757,1547120811280903,0.000124,-0.000024,-0.000000,-0.000000,0.000000,0.000006,1547120811406016,1547120811155900
1547120811780658,1547120811530757,0.000067,0.000005,-0.000000,-0.000000,-0.000000,-0.000004,1547120811655804,1547120811406016
1547120812030843,1547120811780658,-0.000045,0.000048,-0.000000,-0.000000,-0.000000,-0.000006,1547120811905849,1547120811655804
1547120812281859,1547120812030843,-0.000042,0.000022,-0.000000,0.000000,-0.000000,-0.000003,1547120812155954,1547120811905849
1547120812534039,1547120812281859,-0.000005,0.000012,-0.000000,0.000000,-0.000000,0.000006,1547120812408004,1547120812155954
1547120812785840,1547120812534039,-0.000117,0.000029,0.000000,-0.000000,-0.000000,-0.000007,1547120812660197,1547120812408004
1547120813037197,1547120812785840,0.000047,0.000007,-0.000000,-0.000000,-0.000000,-0.000006,1547120812911714,1547120812660197
1547120813288326,1547120813037197,-0.000088,-0.000008,-0.000000,-0.000000,-0.000000,0.000004,1547120813162906,1547120812911714
1547120813539047,1547120813288326,-0.000144,0.000029,-0.000000,0.000000,-0.000000,0.000001,1547120813413968,1547120813162906
1547120813789412,1547120813539047,0.000038,0.000032,-0.000000,-0.000000,0.000000,0.000004,1547120813664254,1547120813413968
1547120814039865,1547120813789412,0.000082,-0.000005,-0.000000,-0.000000,-0.000000,0.000002,1547120813914836,1547120813664254
1547120814289695,1547120814039865,-0.000038,-0.000008,0.000000,0.000000,-0.000000,-0.000005,1547120814164989,1547120813914836
1547120814539089,1547120814289695,0.000001,-0.000011,-0.000000,0.000000,-0.000000,0.000003,1547120814414644,1547120814164989
1547120814788303,1547120814539089,-0.000014,0.000050,-0.000000,0.000000,-0.000000,0.000004,1547120814663780,1547120814414644
1547120815037485,1547120814788303,-0.000073,-0.000044,-0.000000,0.000000,0.000000,0.000007,1547120814913101,1547120814663780
1547120815286359,1547120815037485,-0.000101,0.000063,-0.000000,0.000000,-0.000000,0.000000,1547120815161988,1547120814913101
1547120815534999,1547120815286359,-0.000078,0.000002,-0.000000,0.000000,0.000000,0.000005,1547120815410969,1547120815161988
1547120815783102,1547120815534999,-0.000000,-0.000006,-0.000000,0.000000,0.000000,-0.000003,1547120815659275,1547120815410969
1547120816031829,1547120815783102,0.000031,0.000023,-0.000000,0.000000,-0.000000,-0.000004,1547120815907272,1547120815659275
1547120816281637,1547120816031829,0.000093,-0.000010,-0.000000,0.000000,-0.000000,-0.000009,1547120816156397,1547120815907272
1547120816532047,1547120816281637,0.000023,-0.000017,-0.000000,0.000000,0.000000,0.000011,1547120816407175,1547120816156397
1547120816781870,1547120816532047,0.000035,-0.000028,-0.000000,0.000000,-0.000000,0.000002,1547120816657161,1547120816407175
1547120817031596,1547120816781870,0.000028,0.000018,-0.000000,0.000000,-0.000000,-0.000003,1547120816906822,1547120816657161
1547120817281910,1547120817031596,0.000054,0.000037,-0.000000,0.000000,0.000000,-0.000005,1547120817156376,1547120816906822
1547120817533620,1547120817281910,-0.000006,-0.000026,-0.000000,-0.000000,-0.000000,0.000007,1547120817407452,1547120817156376
1547120817785964,1547120817533620,0.000043,0.000017,-0.000000,0.000000,0.000000,-0.000000,1547120817660030,1547120817407452
1547120818037662,1547120817785964,0.000038,0.000003,-0.000000,0.000000,-0.000000,-0.000003,1547120817911905,1547120817660030
1547120818289140,1547120818037662,-0.000014,-0.000039,-0.000000,0.000000,-0.000000,0.000001,1547120818163648,1547120817911905
1547120818540026,1547120818289140,-0.000027,-0.000045,-0.000000,-0.000000,0.000000,0.000011,1547120818414755,1547120818163648
1547120818790848,1547120818540026,0.000076,-0.000005,-0.000000,0.000000,-0.000000,-0.000001,1547120818665550,1547120818414755
1547120819041323,1547120818790848,0.000010,0.000012,0.000000,-0.000000,0.000000,-0.000004,1547120818916257,1547120818665550
1547120819291660,1547120819041323,-0.000060,-0.000009,-0.000000,-0.000000,0.000000,-0.000001,1547120819166620,1547120818916257
1547120819541459,1547120819291660,-0.000018,0.000004,-0.000000,-0.000000,-0.000000,-0.000002,1547120819416707,1547120819166620
1547120819790849,1547120819541459,0.000010,0.000024,-0.000000,-0.000000,-0.000000,-0.000003,1547120819666220,1547120819416707
1547120820040282,1547120819790849,0.000090,0.000025,-0.000000,-0.000000,0.000000,-0.000014,1547120819915961,1547120819666220
1547120820289262,1547120820040282,-0.000043,0.000008,0.000000,-0.000000,-0.000000,-0.000001,1547120820164966,1547120819915961
1547120820537944,1547120820289262,-0.000047,-0.000005,-0.000000,-0.000000,0.000000,0.000004,1547120820413786,1547120820164966
1547120820786207,1547120820537944,-0.000282,0.000110,-0.000000,0.000000,-0.000000,-0.000007,1547120820662356,1547120820413786
1547120821034860,1547120820786207,-0.000002,-0.000028,-0.000000,-0.000000,-0.000000,0.000003,1547120820910405,1547120820662356
1547120821285061,1547120821034860,0.000015,-0.000015,-0.000000,0.000000,-0.000000,0.000001,1547120821159551,1547120820910405
1547120821535732,1547120821285061,0.000089,0.000023,-0.000000,-0.000000,-0.000000,-0.000007,1547120821410807,1547120821159551
1547120821785584,1547120821535732,0.000014,-0.000012,-0.000000,0.000000,0.000000,-0.000001,1547120821660778,1547120821410807
1547120822035616,1547120821785584,-0.000163,0.000051,-0.000000,-0.000000,-0.000000,-0.000014,1547120821910761,1547120821660778
1547120822286216,1547120822035616,-0.000008,0.000008,-0.000000,0.000000,-0.000000,0.000004,1547120822160578,1547120821910761
1547120822538334,1547120822286216,0.000134,0.000133,-0.000000,-0.000000,-0.000000,-0.000018,1547120822412087,1547120822160578
1547120822790719,1547120822538334,0.000075,0.000013,-0.000000,0.000000,0.000000,-0.000004,1547120822664824,1547120822412087
1547120823042566,1547120822790719,-0.000056,-0.000024,-0.000000,0.000000,0.000000,0.000002,1547120822916960,1547120822664824
1547120823293847,1547120823042566,0.000078,-0.000013,-0.000000,-0.000000,0.000000,-0.000005,1547120823168425,1547120822916960
1547120823544176,1547120823293847,0.000017,0.000002,-0.000000,-0.000000,0.000000,0.000000,1547120823419510,1547120823168425
1547120823793571,1547120823544176,0.000097,-0.000026,0.000000,-0.000000,0.000000,0.000008,1547120823669071,1547120823419510
1547120824042764,1547120823793571,-0.000048,0.000074,-0.000000,-0.000000,0.000000,0.000000,1547120823918312,1547120823669071
1547120824291679,1547120824042764,-0.000006,0.000064,0.000000,-0.000000,0.000000,0.000004,1547120824167323,1547120823918312
1547120824540328,1547120824291679,0.000223,0.000028,-0.000000,-0.000000,-0.000000,0.000003,1547120824416288,1547120824167323
1547120824788347,1547120824540328,-0.000066,0.000042,-0.000000,0.000000,-0.000000,-0.000017,1547120824664377,1547120824416288
1547120825036273,1547120824788347,0.000293,-0.000009,-0.000000,0.000000,-0.000000,-0.000019,1547120824912551,1547120824664377
1547120825284002,1547120825036273,-0.000136,0.000096,-0.000000,-0.000000,-0.000000,-0.000005,1547120825160234,1547120824912551
1547120825532575,1547120825284002,-0.000027,0.000029,-0.000000,-0.000000,-0.000000,-0.000006,1547120825407842,1547120825160234
1547120825782090,1547120825532575,-0.000183,0.000040,-0.000000,0.000000,-0.000000,-0.000001,1547120825657540,1547120825407842
1547120826031641,1547120825782090,0.000015,-0.000008,-0.000000,0.000000,-0.000000,0.000004,1547120825906894,1547120825657540
1547120826282204,1547120826031641,-0.000107,-0.000031,-0.000000,-0.000000,-0.000000,0.000014,1547120826156632,1547120825906894
1547120826534082,1547120826282204,-0.000031,0.000009,-0.000000,-0.000000,-0.000000,-0.000001,1547120826408029,1547120826156632
1547120826785863,1547120826534082,0.000066,-0.000033,-0.000000,-0.000000,0.000000,0.000008,1547120826660386,1547120826408029
1547120827037247,1547120826785863,-0.000025,-0.000006,-0.000000,0.000000,-0.000000,0.000011,1547120826911803,1547120826660386
1547120827288426,1547120827037247,0.000096,0.000032,-0.000000,-0.000000,0.000000,0.000009,1547120827162700,1547120826911803
1547120827541001,1547120827288426,0.000104,-0.000023,-0.000000,-0.000000,-0.000000,0.000009,1547120827414381,1547120827162700
1547120827794052,1547120827541001,0.000033,0.000009,-0.000000,-0.000000,0.000000,0.000009,1547120827667849,1547120827414381
1547120828046040,1547120827794052,-0.000397,0.000089,-0.000000,-0.000000,-0.000000,0.000001,1547120827920484,1547120827667849
1547120828296652,1547120828046040,-0.000359,-0.000013,-0.000000,-0.000000,-0.000000,0.000004,1547120828171852,1547120827920484
1547120828545683,1547120828296652,0.000207,0.000066,-0.000000,-0.000000,0.000000,-0.000008,1547120828421584,1547120828171852
1547120828793753,1547120828545683,-0.000050,0.000019,-0.000000,-0.000000,0.000000,-0.000005,1547120828670048,1547120828421584
1547120829041490,1547120828793753,0.000106,0.000044,-0.000000,-0.000000,0.000000,-0.000006,1547120828917689,1547120828670048
1547120829289216,1547120829041490,0.000101,-0.000048,0.000000,-0.000000,-0.000000,0.000012,1547120829165536,1547120828917689
1547120829536764,1547120829289216,-0.000003,0.000020,-0.000000,-0.000000,0.000000,0.000000,1547120829413136,1547120829165536
1547120829784784,1547120829536764,0.000055,-0.000012,-0.000000,-0.000000,0.000000,0.000001,1547120829660625,1547120829413136
1547120830034263,1547120829784784,0.000267,-0.000054,0.000000,-0.000000,0.000000,0.000005,1547120829909441,1547120829660625
1547120830284505,1547120830034263,0.000064,-0.000011,-0.000000,-0.000000,-0.000000,0.000004,1547120830159215,1547120829909441
1547120830535246,1547120830284505,0.000005,-0.000014,-0.000000,0.000000,0.000000,0.000005,1547120830410027,1547120830159215
1547120830785804,1547120830535246,0.000170,0.000022,-0.000000,0.000000,-0.000000,0.000006,1547120830660708,1547120830410027
1547120831035688,1547120830785804,0.000147,-0.000106,-0.000000,-0.000000,-0.000000,-0.000001,1547120830910906,1547120830660708
1547120831285199,1547120831035688,-0.000013,-0.000035,-0.000000,0.000000,-0.000000,0.000002,1547120831160717,1547120830910906
1547120831535170,1547120831285199,0.000044,-0.000006,-0.000000,0.000000,-0.000000,-0.000006,1547120831409798,1547120831160717
1547120831786964,1547120831535170,-0.000143,0.000040,-0.000000,0.000000,-0.000000,0.000002,1547120831660909,1547120831409798
1547120832038912,1547120831786964,0.000061,-0.000039,-0.000000,0.000000,0.000000,-0.000002,1547120831913135,1547120831660909
1547120832290215,1547120832038912,0.000004,0.000001,-0.000000,0.000000,0.000000,-0.000007,1547120832164698,1547120831913135
1547120832541352,1547120832290215,0.000080,-0.000006,-0.000000,-0.000000,0.000000,-0.000004,1547120832415740,1547120832164698
1547120832793497,1547120832541352,0.000038,-0.000021,-0.000000,0.000000,0.000000,0.000003,1547120832666973,1547120832415740
1547120833047136,1547120832793497,0.000086,-0.000011,-0.000000,-0.000000,0.000000,0.000006,1547120832920502,1547120832666973
1547120833300359,1547120833047136,0.000053,0.000002,-0.000000,-0.000000,0.000000,-0.000004,1547120833174016,1547120832920502
1547120833552532,1547120833300359,0.000018,-0.000000,0.000000,0.000000,-0.000000,-0.000003,1547120833427057,1547120833174016
1547120833802623,1547120833552532,0.000108,-0.000018,-0.000000,0.000000,0.000000,-0.000002,1547120833678241,1547120833427057
1547120834050925,1547120833802623,0.000104,0.000015,-0.000000,-0.000000,0.000000,-0.000011,1547120833927133,1547120833678241
1547120834298704,1547120834050925,0.000080,0.000147,0.000000,0.000000,-0.000000,-0.000012,1547120834174958,1547120833927133
1547120834546375,1547120834298704,-0.000603,0.000209,-0.000000,0.000000,-0.000000,-0.000006,1547120834422715,1547120834174958
1547120834794009,1547120834546375,0.000069,0.000014,-0.000000,-0.000000,0.000000,-0.000013,1547120834670256,1547120834422715
1547120835042090,1547120834794009,0.000148,-0.000034,-0.000000,0.000000,-0.000000,-0.000002,1547120834918007,1547120834670256
1547120835290958,1547120835042090,0.000070,-0.000048,-0.000000,-0.000000,-0.000000,0.000003,1547120835166278,1547120834918007
1547120835541039,1547120835290958,0.000070,0.000011,-0.000000,0.000000,0.000000,-0.000005,1547120835415876,1547120835166278
1547120835791382,1547120835541039,0.000112,0.000016,-0.000000,0.000000,-0.000000,0.000001,1547120835666333,1547120835415876
1547120836041547,1547120835791382,0.000033,0.000031,-0.000000,-0.000000,0.000000,-0.000008,1547120835916555,1547120835666333
1547120836291403,1547120836041547,0.000185,0.000023,-0.000000,-0.000000,-0.000000,0.000006,1547120836166668,1547120835916555
1547120836541360,1547120836291403,-0.000045,0.000046,-0.000000,-0.000000,-0.000000,-0.000011,1547120836416375,1547120836166668
1547120836792722,1547120836541360,0.000005,0.000005,-0.000000,0.000000,0.000000,0.000000,1547120836666584,1547120836416375
1547120837045588,1547120836792722,0.000122,-0.000013,-0.000000,0.000000,-0.000000,0.000000,1547120836919106,1547120836666584
1547120837296834,1547120837045588,0.000147,-0.000062,-0.000000,-0.000000,-0.000000,0.000006,1547120837172324,1547120836919106
1547120837546997,1547120837296834,0.000111,-0.000019,-0.000000,0.000000,-0.000000,0.000002,1547120837421591,1547120837172324
1547120837798425,1547120837546997,0.000145,-0.000043,-0.000000,-0.000000,0.000000,0.000006,1547120837672652,1547120837421591
1547120838051350,1547120837798425,0.000141,0.000026,0.000000,0.000000,-0.000000,-0.000005,1547120837924422,1547120837672652
1547120838305056,1547120838051350,0.000028,0.000002,-0.000000,-0.000000,-0.000000,-0.000003,1547120838178541,1547120837924422
1547120838557258,1547120838305056,-0.000004,0.000043,0.000000,-0.000000,-0.000000,-0.000007,1547120838431816,1547120838178541
1547120838807651,1547120838557258,-0.000023,-0.000048,-0.000000,-0.000000,-0.000000,0.000006,1547120838682927,1547120838431816
1547120839056323,1547120838807651,-0.000012,-0.000009,-0.000000,-0.000000,-0.000000,0.000005,1547120838932503,1547120838682927
1547120839304065,1547120839056323,0.000017,0.000047,-0.000000,0.000000,0.000000,-0.000006,1547120839180312,1547120838932503
1547120839551751,1547120839304065,0.000033,-0.000006,-0.000000,-0.000000,0.000000,-0.000003,1547120839427958,1547120839180312
1547120839799419,1547120839551751,-0.000153,0.000024,0.000000,0.000000,-0.000000,0.000006,1547120839675659,1547120839427958
1547120840047482,1547120839799419,0.000126,-0.000010,-0.000000,-0.000000,0.000000,-0.000006,1547120839923296,1547120839675659
1547120840296832,1547120840047482,-0.000000,-0.000022,0.000000,-0.000000,-0.000000,0.000003,1547120840171907,1547120839923296
1547120840547094,1547120840296832,-0.000026,-0.000014,-0.000000,0.000000,-0.000000,0.000004,1547120840421989,1547120840171907
1547120840797712,1547120840547094,0.000100,0.000020,-0.000000,0.000000,-0.000000,-0.000005,1547120840672442,1547120840421989
1547120841048271,1547120840797712,-0.000185,0.000013,-0.000000,0.000000,0.000000,-0.000001,1547120840923214,1547120840672442
1547120841298418,1547120841048271,0.000060,0.000011,-0.000000,0.000000,0.000000,-0.000000,1547120841173563,1547120840923214
1547120841548258,1547120841298418,0.000076,-0.000018,-0.000000,-0.000000,-0.000000,0.000001,1547120841423511,1547120841173563
1547120841798840,1547120841548258,-0.000019,-0.000020,-0.000000,-0.000000,-0.000000,-0.000001,1547120841673249,1547120841423511
1547120842050823,1547120841798840,-0.000024,-0.000026,-0.000000,0.000000,-0.000000,0.000002,1547120841924671,1547120841673249
1547120842302652,1547120842050823,-0.000014,-0.000001,-0.000000,0.000000,-0.000000,0.000003,1547120842177084,1547120841924671
1547120842553827,1547120842302652,0.000137,0.000006,-0.000000,0.000000,-0.000000,-0.000001,1547120842428496,1547120842177084
1547120842805053,1547120842553827,0.000091,0.000020,-0.000000,-0.000000,0.000000,0.000002,1547120842679290,1547120842428496
1547120843057467,1547120842805053,0.000108,0.000010,-0.000000,-0.000000,-0.000000,-0.000005,1547120842931143,1547120842679290
1547120843310663,1547120843057467,-0.000095,0.000013,0.000000,0.000000,-0.000000,0.000001,1547120843184055,1547120842931143
1547120843562964,1547120843310663,-0.000047,0.000009,-0.000000,0.000000,-0.000000,-0.000007,1547120843437381,1547120843184055
1547120843813553,1547120843562964,-0.000034,-0.000006,-0.000000,-0.000000,-0.000000,-0.000001,1547120843688799,1547120843437381
1547120844062487,1547120843813553,-0.000003,0.000018,-0.000000,-0.000000,-0.000000,-0.000001,1547120843938321,1547120843688799
1547120844310775,1547120844062487,0.000063,-0.000040,-0.000000,-0.000000,0.000000,0.000008,1547120844186899,1547120843938321
1547120844558465,1547120844310775,-0.000032,0.000009,-0.000000,0.000000,0.000000,-0.000002,1547120844434914,1547120844186899
1547120844806139,1547120844558465,0.000019,0.000051,-0.000000,-0.000000,0.000000,-0.000004,1547120844682251,1547120844434914
1547120845054623,1547120844806139,0.000028,-0.000031,-0.000000,0.000000,-0.000000,0.000006,1547120844930202,1547120844682251
1547120845304075,1547120845054623,-0.000122,-0.000040,-0.000000,0.000000,0.000000,-0.000000,1547120845179165,1547120844930202
1547120845553746,1547120845304075,-0.000166,-0.000003,-0.000000,0.000000,-0.000000,-0.000007,1547120845429158,1547120845179165
1547120845803037,1547120845553746,-0.000036,-0.000003,-0.000000,-0.000000,0.000000,-0.000003,1547120845678692,1547120845429158
1547120846051944,1547120845803037,-0.000012,-0.000039,-0.000000,0.000000,0.000000,0.000006,1547120845927697,1547120845678692
1547120846300667,1547120846051944,0.000044,-0.000025,-0.000000,0.000000,-0.000000,0.000004,1547120846176426,1547120845927697
1547120846549075,1547120846300667,0.000012,-0.000029,-0.000000,0.000000,-0.000000,-0.000010,1547120846425151,1547120846176426
1547120846797498,1547120846549075,0.000083,0.000019,-0.000000,0.000000,0.000000,0.000007,1547120846673112,1547120846425151
1547120847047307,1547120846797498,-0.000079,-0.000030,-0.000000,-0.000000,0.000000,0.000016,1547120846922134,1547120846673112
1547120847297613,1547120847047307,0.000112,0.000039,-0.000000,0.000000,0.000000,-0.000003,1547120847172730,1547120846922134
1547120847547521,1547120847297613,0.000104,-0.000032,-0.000000,-0.000000,0.000000,0.000000,1547120847422727,1547120847172730
1547120847797456,1547120847547521,0.000216,0.000030,-0.000000,0.000000,-0.000000,-0.000012,1547120847672679,1547120847422727
1547120848047367,1547120847797456,0.000016,-0.000023,-0.000000,-0.000000,0.000000,-0.000001,1547120847922500,1547120847672679
1547120848298481,1547120848047367,0.000047,0.000072,-0.000000,0.000000,0.000000,-0.000010,1547120848172247,1547120847922500
1547120848550843,1547120848298481,0.000046,-0.000007,-0.000000,-0.000000,0.000000,0.000002,1547120848424723,1547120848172247
1547120848802886,1547120848550843,0.000203,-0.000108,0.000000,-0.000000,0.000000,0.000014,1547120848677210,1547120848424723
1547120849054140,1547120848802886,-0.000054,-0.000029,-0.000000,-0.000000,0.000000,0.000006,1547120848928570,1547120848677210
1547120849305054,1547120849054140,0.000008,-0.000004,-0.000000,0.000000,-0.000000,-0.000005,1547120849179845,1547120848928570
1547120849555592,1547120849305054,-0.000036,-0.000010,-0.000000,-0.000000,0.000000,0.000005,1547120849430271,1547120849179845
1547120849806319,1547120849555592,0.000034,0.000043,-0.000000,0.000000,-0.000000,-0.000006,1547120849681069,1547120849430271
1547120850056861,1547120849806319,0.000022,-0.000010,-0.000000,-0.000000,-0.000000,0.000005,1547120849931820,1547120849681069
1547120850306731,1547120850056861,0.000055,0.000016,-0.000000,-0.000000,-0.000000,0.000010,1547120850182124,1547120849931820
1547120850556004,1547120850306731,0.000192,-0.000011,-0.000000,0.000000,-0.000000,-0.000001,1547120850431601,1547120850182124
1547120850804949,1547120850556004,-0.000003,-0.000046,-0.000000,-0.000000,0.000000,0.000004,1547120850680693,1547120850431601
1547120851053719,1547120850804949,0.000174,-0.000054,-0.000000,-0.000000,0.000000,0.000009,1547120850929436,1547120850680693
1547120851302402,1547120851053719,-0.000206,0.000063,-0.000000,0.000000,0.000000,-0.000008,1547120851178370,1547120850929436
1547120851550780,1547120851302402,0.000003,0.000029,-0.000000,0.000000,0.000000,-0.000008,1547120851426680,1547120851178370
1547120851799418,1547120851550780,0.000163,0.000134,-0.000000,-0.000000,0.000000,-0.000035,1547120851675117,1547120851426680
1547120852049181,1547120851799418,0.000012,0.000088,-0.000000,0.000000,-0.000000,-0.000045,1547120851923963,1547120851675117
1547120852299730,1547120852049181,0.000054,0.000131,-0.000000,0.000000,-0.000000,0.000013,1547120852174641,1547120851923963
1547120852549732,1547120852299730,0.000945,0.000050,-0.000000,-0.000000,-0.000000,0.000268,1547120852425149,1547120852174641
1547120852799364,1547120852549732,0.012839,0.002119,-0.000000,-0.000000,-0.000000,0.000679,1547120852674552,1547120852425149
1547120853049479,1547120852799364,0.016158,0.001515,-0.000000,-0.000000,-0.000000,0.001687,1547120852924184,1547120852674552
1547120853301048,1547120853049479,0.019537,0.000445,-0.000000,-0.000000,0.000000,0.002903,1547120853175005,1547120852924184
1547120853553302,1547120853301048,0.033302,0.002795,-0.000000,0.000000,-0.000000,0.004767,1547120853427325,1547120853175005
1547120853805080,1547120853553302,0.059610,0.006075,-0.000000,0.000000,-0.000000,0.007813,1547120853679529,1547120853427325
1547120854056406,1547120853805080,0.083716,0.005674,-0.000000,-0.000000,0.000000,0.012379,1547120853930863,1547120853679529
1547120854307573,1547120854056406,0.150479,0.020733,-0.000000,-0.000000,-0.000000,0.017188,1547120854182191,1547120853930863
1547120854558360,1547120854307573,0.193374,0.023170,-0.000000,0.000000,0.000000,0.024021,1547120854433200,1547120854182191
1547120854808519,1547120854558360,0.230325,0.026459,-0.000000,0.000000,-0.000000,0.029653,1547120854683531,1547120854433200
1547120855058532,1547120854808519,0.277550,0.031087,-0.000000,0.000000,0.000000,0.034017,1547120854933772,1547120854683531
1547120855308497,1547120855058532,0.326017,0.033156,-0.000000,-0.000000,-0.000000,0.037584,1547120855183534,1547120854933772
1547120855557955,1547120855308497,0.401267,0.033531,-0.000000,-0.000000,0.000000,0.039295,1547120855433489,1547120855183534
1547120855806873,1547120855557955,0.472126,0.035241,-0.000000,0.000000,-0.000000,0.036795,1547120855682674,1547120855433489
1547120856055827,1547120855806873,0.542943,0.027237,0.000000,-0.000000,-0.000000,0.030765,1547120855931303,1547120855682674
1547120856305225,1547120856055827,0.620770,0.014981,-0.000000,-0.000000,-0.000000,0.021496,1547120856180591,1547120855931303
1547120856553890,1547120856305225,0.695853,-0.011424,-0.000000,-0.000000,-0.000000,0.002296,1547120856430221,1547120856180591
1547120856801856,1547120856553890,0.782000,-0.021569,-0.000000,-0.000000,0.000000,-0.010341,1547120856677799,1547120856430221
1547120857051166,1547120856801856,0.852001,-0.035783,-0.000000,-0.000000,-0.000000,-0.021653,1547120856926033,1547120856677799
1547120857301209,1547120857051166,0.937775,-0.045968,-0.000000,-0.000000,-0.000000,-0.026028,1547120857176543,1547120856926033
1547120857550654,1547120857301209,1.034373,-0.048214,-0.000000,0.000000,-0.000000,-0.027295,1547120857425883,1547120857176543
1547120857800508,1547120857550654,1.112052,-0.042681,-0.000000,0.000000,-0.000000,-0.023929,1547120857675448,1547120857425883
1547120858050213,1547120857800508,1.195446,-0.040906,-0.000000,0.000000,-0.000000,-0.021409,1547120857925803,1547120857675448
1547120858300055,1547120858050213,1.277969,-0.045024,-0.000000,-0.000000,-0.000000,-0.022269,1547120858174860,1547120857925803
1547120858549837,1547120858300055,1.343475,-0.042923,-0.000000,-0.000000,0.000000,-0.020318,1547120858425359,1547120858174860
1547120858800157,1547120858549837,1.409451,-0.037226,-0.000000,0.000000,0.000000,-0.015475,1547120858674440,1547120858425359
1547120859051931,1547120858800157,1.474763,-0.027658,-0.000000,-0.000000,-0.000000,-0.011191,1547120858926124,1547120858674440
1547120859303081,1547120859051931,1.528250,-0.028023,-0.000000,0.000000,0.000000,-0.009211,1547120859177747,1547120858926124
1547120859554127,1547120859303081,1.558096,-0.029012,-0.000000,0.000000,-0.000000,-0.010617,1547120859428657,1547120859177747
1547120859805212,1547120859554127,1.578334,-0.022725,-0.000000,-0.000000,0.000000,-0.009810,1547120859679703,1547120859428657
1547120860055582,1547120859805212,1.628365,-0.028689,-0.000000,0.000000,0.000000,-0.006198,1547120859930947,1547120859679703
1547120860305586,1547120860055582,1.649688,-0.015113,-0.000000,-0.000000,-0.000000,-0.003580,1547120860180444,1547120859930947
1547120860555429,1547120860305586,1.643353,-0.017819,-0.000000,0.000000,0.000000,-0.003906,1547120860431065,1547120860180444
1547120860804440,1547120860555429,1.641824,-0.014732,-0.000000,0.000000,0.000000,-0.004744,1547120860679888,1547120860431065
1547120861053940,1547120860804440,1.664058,-0.016390,-0.000000,-0.000000,0.000000,-0.003337,1547120860929235,1547120860679888
1547120861302992,1547120861053940,1.670461,-0.010044,-0.000000,-0.000000,0.000000,0.001223,1547120861178881,1547120860929235
1547120861551518,1547120861302992,1.643165,-0.004330,-0.000000,0.000000,-0.000000,0.006421,1547120861427346,1547120861178881
1547120861799958,1547120861551518,1.634169,0.001906,0.000000,-0.000000,0.000000,0.005668,1547120861675929,1547120861427346
1547120862048022,1547120861799958,1.844542,-0.003033,-0.000000,-0.000000,0.000000,0.006331,1547120861923995,1547120861675929
1547120862297013,1547120862048022,1.977196,-0.002712,-0.000000,0.000000,-0.000000,0.002139,1547120862172149,1547120861923995
1547120862547597,1547120862297013,2.001046,-0.014073,-0.000000,-0.000000,-0.000000,-0.002462,1547120862422244,1547120862172149
1547120862797756,1547120862547597,1.995454,-0.019270,-0.000000,0.000000,-0.000000,-0.001209,1547120862673083,1547120862422244
1547120863047279,1547120862797756,1.993903,-0.016645,-0.000000,-0.000000,-0.000000,0.002290,1547120862922672,1547120862673083
1547120863296521,1547120863047279,1.976213,-0.003780,-0.000000,0.000000,-0.000000,0.004018,1547120863171894,1547120862922672
1547120863547696,1547120863296521,1.989942,-0.002047,-0.000000,0.000000,0.000000,0.004379,1547120863421394,1547120863171894
1547120863799871,1547120863547696,2.003582,-0.005881,-0.000000,-0.000000,0.000000,0.004259,1547120863674352,1547120863421394
1547120864050983,1547120863799871,1.980804,-0.003724,-0.000000,0.000000,-0.000000,0.004614,1547120863925403,1547120863674352
1547120864301987,1547120864050983,1.973481,-0.006478,-0.000000,0.000000,0.000000,0.002518,1547120864176812,1547120863925403
1547120864552856,1547120864301987,1.943380,-0.012074,-0.000000,-0.000000,0.000000,-0.000506,1547120864427417,1547120864176812
1547120864803557,1547120864552856,1.920659,-0.016302,-0.000000,0.000000,-0.000000,-0.003926,1547120864678527,1547120864427417
1547120865053726,1547120864803557,1.922387,-0.015365,-0.000000,-0.000000,-0.000000,-0.005068,1547120864928827,1547120864678527
1547120865303444,1547120865053726,1.906120,-0.013833,-0.000000,0.000000,0.000000,-0.004341,1547120865178755,1547120864928827
1547120865553008,1547120865303444,1.850812,-0.008442,-0.000000,0.000000,-0.000000,-0.003523,1547120865428391,1547120865178755
1547120865802142,1547120865553008,1.826083,-0.012858,-0.000000,-0.000000,0.000000,-0.003854,1547120865677749,1547120865428391
1547120866050896,1547120865802142,1.824846,-0.010860,-0.000000,0.000000,0.000000,-0.002904,1547120865926678,1547120865677749
1547120866299414,1547120866050896,1.828025,-0.014115,-0.000000,0.000000,-0.000000,-0.006473,1547120866175127,1547120865926678
1547120866547890,1547120866299414,1.746859,-0.015299,-0.000000,0.000000,-0.000000,-0.006072,1547120866423907,1547120866175127
1547120866796493,1547120866547890,2.163246,-0.017104,-0.000000,0.000000,0.000000,-0.008898,1547120866671883,1547120866423907
1547120867046440,1547120866796493,2.246112,-0.022618,-0.000000,-0.000000,0.000000,-0.007512,1547120866921218,1547120866671883
1547120867296638,1547120867046440,2.209792,-0.026922,-0.000000,0.000000,-0.000000,-0.005775,1547120867171900,1547120866921218
1547120867546159,1547120867296638,2.184056,-0.016515,-0.000000,0.000000,0.000000,-0.006889,1547120867421396,1547120867171900
1547120867796056,1547120867546159,2.175537,-0.016067,-0.000000,0.000000,-0.000000,-0.004166,1547120867671052,1547120867421396
1547120868047187,1547120867796056,2.173996,-0.010032,-0.000000,0.000000,-0.000000,-0.002335,1547120867921180,1547120867671052
1547120868299103,1547120868047187,2.131555,-0.008882,-0.000000,0.000000,-0.000000,-0.003885,1547120868173325,1547120867921180
1547120868550316,1547120868299103,2.092429,-0.003746,-0.000000,0.000000,-0.000000,0.001781,1547120868424987,1547120868173325
1547120868801014,1547120868550316,2.062716,-0.000932,-0.000000,0.000000,0.000000,0.003291,1547120868675891,1547120868424987
1547120869051544,1547120868801014,2.034573,0.004579,0.000000,-0.000000,-0.000000,0.003812,1547120868926378,1547120868675891
1547120869301606,1547120869051544,2.010911,0.003994,-0.000000,-0.000000,0.000000,0.004960,1547120869176949,1547120868926378
1547120869551399,1547120869301606,1.947882,-0.000676,-0.000000,0.000000,0.000000,0.004935,1547120869426484,1547120869176949
1547120869801163,1547120869551399,1.927278,0.004701,0.000000,0.000000,0.000000,0.008304,1547120869676323,1547120869426484
1547120870050427,1547120869801163,1.916974,0.008874,-0.000000,0.000000,-0.000000,0.007007,1547120869926236,1547120869676323
1547120870299556,1547120870050427,1.899746,0.004975,-0.000000,-0.000000,-0.000000,0.007640,1547120870174851,1547120869926236
1547120870548510,1547120870299556,1.809883,0.003034,-0.000000,0.000000,-0.000000,0.005918,1547120870424499,1547120870174851
1547120870797226,1547120870548510,1.782685,0.000891,-0.000000,-0.000000,-0.000000,0.006150,1547120870672858,1547120870424499
1547120871045838,1547120870797226,1.924397,0.004293,-0.000000,0.000000,-0.000000,0.005846,1547120870921857,1547120870672858
1547120871294077,1547120871045838,2.195565,-0.005440,-0.000000,-0.000000,-0.000000,0.006099,1547120871170059,1547120870921857
1547120871542891,1547120871294077,2.160110,-0.000519,-0.000000,-0.000000,-0.000000,0.004768,1547120871418335,1547120871170059
1547120871792445,1547120871542891,2.124037,0.000173,-0.000000,-0.000000,0.000000,0.004939,1547120871667565,1547120871418335
1547120872042355,1547120871792445,2.116581,-0.005930,-0.000000,0.000000,-0.000000,0.004217,1547120871917558,1547120871667565
1547120872292140,1547120872042355,2.075116,-0.001593,-0.000000,-0.000000,0.000000,0.002964,1547120872167158,1547120871917558
1547120872541910,1547120872292140,2.027888,-0.008167,-0.000000,0.000000,0.000000,0.002751,1547120872417369,1547120872167158
1547120872791603,1547120872541910,1.979328,-0.005188,-0.000000,-0.000000,-0.000000,0.002338,1547120872666457,1547120872417369
1547120873042223,1547120872791603,1.970906,-0.008595,-0.000000,-0.000000,-0.000000,0.000914,1547120872916865,1547120872666457
1547120873293821,1547120873042223,1.966684,-0.008500,-0.000000,0.000000,-0.000000,-0.000651,1547120873167821,1547120872916865
1547120873545450,1547120873293821,1.923389,-0.009457,-0.000000,-0.000000,0.000000,-0.001558,1547120873420301,1547120873167821
1547120873796002,1547120873545450,1.881829,-0.003237,-0.000000,-0.000000,-0.000000,-0.004153,1547120873670713,1547120873420301
1547120874047473,1547120873796002,1.893290,-0.007532,-0.000000,-0.000000,-0.000000,-0.005322,1547120873921532,1547120873670713
1547120874298679,1547120874047473,1.890600,-0.006044,-0.000000,0.000000,-0.000000,-0.005833,1547120874173655,1547120873921532
1547120874549155,1547120874298679,2.074196,-0.007721,-0.000000,-0.000000,-0.000000,-0.005667,1547120874423930,1547120874173655
1547120874799563,1547120874549155,2.290022,-0.013643,-0.000000,0.000000,-0.000000,-0.004408,1547120874674386,1547120874423930
1547120875049765,1547120874799563,2.239915,0.007423,-0.000000,-0.000000,-0.000000,-0.001587,1547120874924842,1547120874674386
1547120875299561,1547120875049765,2.223429,0.004005,-0.000000,0.000000,0.000000,0.000990,1547120875174928,1547120874924842
1547120875549136,1547120875299561,2.214167,-0.000499,-0.000000,-0.000000,-0.000000,0.000958,1547120875424317,1547120875174928
1547120875798232,1547120875549136,2.194596,0.011466,-0.000000,0.000000,-0.000000,0.000170,1547120875674083,1547120875424317
1547120876047296,1547120875798232,2.168717,0.001997,-0.000000,-0.000000,-0.000000,-0.000769,1547120875922615,1547120875674083
1547120876296404,1547120876047296,2.139848,0.006859,-0.000000,-0.000000,-0.000000,-0.000875,1547120876172226,1547120875922615
1547120876544942,1547120876296404,2.080978,0.000085,-0.000000,0.000000,-0.000000,0.000006,1547120876420824,1547120876172226
1547120876794244,1547120876544942,2.070853,-0.006027,-0.000000,-0.000000,0.000000,0.000378,1547120876669295,1547120876420824
1547120877044315,1547120876794244,2.060784,-0.005683,-0.000000,-0.000000,-0.000000,0.001375,1547120876919439,1547120876669295
1547120877294907,1547120877044315,2.059180,-0.007569,-0.000000,-0.000000,-0.000000,0.001562,1547120877169442,1547120876919439
1547120877544659,1547120877294907,1.976790,0.002065,-0.000000,-0.000000,0.000000,0.002102,1547120877420495,1547120877169442
1547120877793666,1547120877544659,2.440915,0.005409,-0.000000,0.000000,-0.000000,0.002497,1547120877669066,1547120877420495
1547120878043498,1547120877793666,2.425732,0.006094,-0.000000,0.000000,-0.000000,0.002203,1547120877918514,1547120877669066
1547120878294171,1547120878043498,2.399647,0.000528,-0.000000,-0.000000,0.000000,0.001424,1547120878168722,1547120877918514
1547120878546081,1547120878294171,2.399289,-0.011286,-0.000000,-0.000000,-0.000000,0.002037,1547120878420083,1547120878168722
1547120878797696,1547120878546081,2.368899,-0.013472,-0.000000,-0.000000,-0.000000,0.001677,1547120878672434,1547120878420083
1547120879048867,1547120878797696,2.301530,-0.007618,-0.000000,-0.000000,-0.000000,0.002136,1547120878923207,1547120878672434
1547120879299958,1547120879048867,2.265667,-0.011163,-0.000000,-0.000000,0.000000,0.001662,1547120879174605,1547120878923207
1547120879550643,1547120879299958,2.212585,-0.002954,-0.000000,-0.000000,-0.000000,0.001465,1547120879425402,1547120879174605
1547120879801132,1547120879550643,2.151395,-0.000640,-0.000000,-0.000000,0.000000,0.001019,1547120879676116,1547120879425402
1547120880051448,1547120879801132,2.127098,0.003767,-0.000000,0.000000,-0.000000,0.001432,1547120879926383,1547120879676116
1547120880301616,1547120880051448,2.102433,-0.002629,-0.000000,-0.000000,-0.000000,0.000992,1547120880176771,1547120879926383
1547120880550965,1547120880301616,2.025375,-0.009983,-0.000000,-0.000000,-0.000000,0.001377,1547120880426697,1547120880176771
1547120880799737,1547120880550965,1.970811,-0.010830,-0.000000,0.000000,-0.000000,0.000501,1547120880675240,1547120880426697
1547120881048599,1547120880799737,2.066550,-0.009651,-0.000000,-0.000000,-0.000000,0.000948,1547120880924345,1547120880675240
1547120881297511,1547120881048599,2.225467,-0.013659,-0.000000,0.000000,0.000000,0.000860,1547120881173321,1547120880924345
1547120881545975,1547120881297511,2.182295,-0.009716,-0.000000,0.000000,-0.000000,0.000539,1547120881421970,1547120881173321
1547120881794162,1547120881545975,2.098050,-0.005806,-0.000000,0.000000,-0.000000,0.000549,1547120881670346,1547120881421970
1547120882042959,1547120881794162,2.018793,-0.010086,-0.000000,0.000000,0.000000,0.000853,1547120881918090,1547120881670346
1547120882292983,1547120882042959,1.981752,-0.009306,-0.000000,0.000000,0.000000,0.000593,1547120882168177,1547120881918090
1547120882542503,1547120882292983,1.907295,-0.009382,-0.000000,0.000000,-0.000000,0.000697,1547120882418040,1547120882168177
1547120882791976,1547120882542503,1.844036,-0.005751,-0.000000,0.000000,0.000000,0.000625,1547120882667203,1547120882418040
1547120883042008,1547120882791976,1.792432,-0.004120,-0.000000,-0.000000,0.000000,0.000887,1547120882916986,1547120882667203
1547120883293042,1547120883042008,1.741681,-0.003316,-0.000000,0.000000,-0.000000,0.000175,1547120883167274,1547120882916986
1547120883545409,1547120883293042,1.673311,0.003165,-0.000000,-0.000000,-0.000000,-0.001366,1547120883419059,1547120883167274
1547120883797627,1547120883545409,1.602471,-0.002813,-0.000000,0.000000,0.000000,-0.001611,1547120883671767,1547120883419059
1547120884049414,1547120883797627,1.597843,-0.000723,-0.000000,-0.000000,-0.000000,-0.002029,1547120883923496,1547120883671767
1547120884300702,1547120884049414,1.521936,-0.003923,-0.000000,0.000000,-0.000000,-0.001563,1547120884175590,1547120883923496
1547120884550599,1547120884300702,1.426142,-0.004200,0.000000,0.000000,-0.000000,-0.000938,1547120884426060,1547120884175590
1547120884799870,1547120884550599,1.344075,-0.006471,-0.000000,0.000000,-0.000000,-0.000978,1547120884675378,1547120884426060
1547120885048973,1547120884799870,1.272360,-0.004281,-0.000000,-0.000000,-0.000000,-0.001739,1547120884924602,1547120884675378
1547120885297583,1547120885048973,1.195671,-0.003210,-0.000000,0.000000,0.000000,0.000265,1547120885173457,1547120884924602
1547120885545594,1547120885297583,1.142081,-0.002828,-0.000000,0.000000,-0.000000,0.000230,1547120885421957,1547120885173457
1547120885793066,1547120885545594,1.078204,0.002489,-0.000000,-0.000000,-0.000000,0.001263,1547120885669466,1547120885421957
1547120886040678,1547120885793066,1.023991,0.001376,-0.000000,-0.000000,-0.000000,0.003204,1547120885916782,1547120885669466
1547120886289499,1547120886040678,0.987544,0.009185,-0.000000,0.000000,-0.000000,0.004751,1547120886164827,1547120885916782
1547120886539268,1547120886289499,0.939067,0.003254,0.000000,-0.000000,0.000000,0.005785,1547120886414291,1547120886164827
1547120886789188,1547120886539268,0.908008,0.002232,-0.000000,0.000000,-0.000000,0.004684,1547120886664722,1547120886414291
1547120887038966,1547120886789188,0.879798,0.007729,-0.000000,0.000000,-0.000000,0.003880,1547120886913888,1547120886664722
1547120887290042,1547120887038966,0.863128,0.004299,-0.000000,-0.000000,-0.000000,0.004720,1547120887164144,1547120886913888
1547120887541601,1547120887290042,0.853086,0.001974,-0.000000,-0.000000,-0.000000,0.004099,1547120887416297,1547120887164144
1547120887792824,1547120887541601,0.860142,0.009485,-0.000000,0.000000,0.000000,0.004950,1547120887667158,1547120887416297
1547120888044027,1547120887792824,0.876125,0.007533,-0.000000,-0.000000,-0.000000,0.004433,1547120887918742,1547120887667158
1547120888294968,1547120888044027,0.915683,0.004334,-0.000000,0.000000,0.000000,0.005932,1547120888169534,1547120887918742
1547120888546911,1547120888294968,0.961556,0.006260,-0.000000,-0.000000,-0.000000,0.004755,1547120888420635,1547120888169534
1547120888800349,1547120888546911,0.985473,0.006717,-0.000000,0.000000,-0.000000,0.006056,1547120888673316,1547120888420635
1547120889053440,1547120888800349,0.953679,0.008671,-0.000000,0.000000,-0.000000,0.004880,1547120888927402,1547120888673316
1547120889304873,1547120889053440,0.910104,0.005719,-0.000000,-0.000000,0.000000,0.005473,1547120889179722,1547120888927402
1547120889555128,1547120889304873,0.909026,0.008094,-0.000000,-0.000000,-0.000000,0.005506,1547120889430375,1547120889179722
1547120889804228,1547120889555128,0.918470,0.008974,-0.000000,-0.000000,-0.000000,0.005892,1547120889680130,1547120889430375
1547120890051762,1547120889804228,0.938006,0.005365,-0.000000,-0.000000,0.000000,0.004370,1547120889928334,1547120889680130
1547120890299321,1547120890051762,0.956904,0.008260,-0.000000,0.000000,-0.000000,0.003712,1547120890175198,1547120889928334
1547120890547268,1547120890299321,1.059336,0.002711,-0.000000,-0.000000,-0.000000,0.002607,1547120890423452,1547120890175198
1547120890794377,1547120890547268,1.102213,-0.001089,-0.000000,0.000000,-0.000000,0.002009,1547120890671307,1547120890423452
1547120891042099,1547120890794377,1.121459,0.003292,-0.000000,-0.000000,0.000000,0.000546,1547120890917798,1547120890671307
1547120891290855,1547120891042099,1.142534,-0.001929,-0.000000,0.000000,-0.000000,0.000099,1547120891166764,1547120890917798
1547120891540540,1547120891290855,1.183317,-0.002623,-0.000000,0.000000,-0.000000,-0.001727,1547120891415064,1547120891166764
1547120891791776,1547120891540540,1.201526,-0.003416,-0.000000,0.000000,-0.000000,0.000403,1547120891666255,1547120891415064
1547120892043014,1547120891791776,1.235608,-0.005110,-0.000000,-0.000000,-0.000000,0.000432,1547120891917418,1547120891666255
1547120892295379,1547120892043014,1.283380,-0.003137,-0.000000,0.000000,-0.000000,-0.001053,1547120892168741,1547120891917418
1547120892548556,1547120892295379,1.330930,-0.001756,-0.000000,0.000000,0.000000,-0.000632,1547120892422282,1547120892168741
1547120892800396,1547120892548556,1.364399,-0.006542,-0.000000,0.000000,-0.000000,-0.000210,1547120892674930,1547120892422282
1547120893050519,1547120892800396,1.375652,0.000279,-0.000000,-0.000000,-0.000000,-0.000609,1547120892926108,1547120892674930
1547120893299345,1547120893050519,1.401696,-0.002097,-0.000000,-0.000000,-0.000000,0.000142,1547120893175170,1547120892926108
1547120893547743,1547120893299345,1.419385,-0.002875,-0.000000,-0.000000,-0.000000,0.001095,1547120893423771,1547120893175170
1547120893796970,1547120893547743,1.453660,0.001510,-0.000000,-0.000000,-0.000000,0.000759,1547120893671808,1547120893423771
1547120894047569,1547120893796970,1.479980,-0.001806,-0.000000,0.000000,-0.000000,0.000821,1547120893922369,1547120893671808
1547120894298054,1547120894047569,1.555035,0.004609,-0.000000,-0.000000,0.000000,0.000718,1547120894172997,1547120893922369
1547120894548145,1547120894298054,1.570812,-0.001705,-0.000000,-0.000000,-0.000000,0.004263,1547120894423360,1547120894172997
1547120894797332,1547120894548145,1.584532,-0.001998,-0.000000,-0.000000,0.000000,0.001583,1547120894672938,1547120894423360
1547120895046554,1547120894797332,1.596222,0.000938,-0.000000,-0.000000,-0.000000,-0.000339,1547120894921978,1547120894672938
1547120895295823,1547120895046554,1.660695,-0.006500,-0.000000,-0.000000,0.000000,0.000455,1547120895171374,1547120894921978
1547120895544580,1547120895295823,1.674632,-0.004053,-0.000000,0.000000,0.000000,0.000119,1547120895420397,1547120895171374
1547120895793067,1547120895544580,1.684631,-0.003941,-0.000000,-0.000000,-0.000000,-0.000030,1547120895669005,1547120895420397
1547120896041202,1547120895793067,1.704574,-0.005368,-0.000000,-0.000000,-0.000000,-0.000186,1547120895917624,1547120895669005
1547120896288894,1547120896041202,1.742126,-0.006287,-0.000000,0.000000,-0.000000,-0.000352,1547120896165029,1547120895917624
1547120896536857,1547120896288894,1.738289,-0.007720,-0.000000,-0.000000,-0.000000,-0.000611,1547120896412992,1547120896165029
1547120896785070,1547120896536857,1.748934,-0.002970,-0.000000,-0.000000,-0.000000,0.000060,1547120896660851,1547120896412992
1547120897034193,1547120896785070,1.763902,-0.001303,-0.000000,-0.000000,-0.000000,0.001268,1547120896909426,1547120896660851
1547120897284994,1547120897034193,1.807270,0.003980,-0.000000,0.000000,-0.000000,0.002366,1547120897159228,1547120896909426
1547120897536342,1547120897284994,1.830058,0.000301,-0.000000,0.000000,0.000000,0.002507,1547120897411000,1547120897159228
1547120897787293,1547120897536342,1.816987,-0.005297,-0.000000,0.000000,0.000000,0.000397,1547120897661937,1547120897411000
1547120898038588,1547120897787293,1.804600,-0.004146,-0.000000,-0.000000,0.000000,-0.000224,1547120897912898,1547120897661937
1547120898290023,1547120898038588,1.805047,-0.006798,-0.000000,-0.000000,0.000000,-0.000218,1547120898164288,1547120897912898
1547120898541023,1547120898290023,1.764754,-0.006761,-0.000000,-0.000000,-0.000000,-0.000782,1547120898416030,1547120898164288
1547120898792774,1547120898541023,1.750118,-0.002237,-0.000000,0.000000,-0.000000,0.000761,1547120898666372,1547120898416030
1547120899046095,1547120898792774,1.834115,0.001067,-0.000000,0.000000,-0.000000,0.001407,1547120898919401,1547120898666372
1547120899299180,1547120899046095,1.818888,-0.002690,-0.000000,-0.000000,0.000000,0.001527,1547120899173033,1547120898919401
1547120899550974,1547120899299180,1.782929,-0.006336,-0.000000,-0.000000,0.000000,0.001568,1547120899425570,1547120899173033
1547120899800883,1547120899550974,1.748912,-0.004666,-0.000000,0.000000,-0.000000,0.000720,1547120899676495,1547120899425570
1547120900049416,1547120899800883,1.727648,-0.006167,-0.000000,-0.000000,-0.000000,0.000784,1547120899925502,1547120899676495
1547120900297053,1547120900049416,1.714373,-0.007932,-0.000000,0.000000,0.000000,0.000715,1547120900173580,1547120899925502
1547120900544200,1547120900297053,1.837794,-0.009244,-0.000000,-0.000000,0.000000,0.000056,1547120900420628,1547120900173580
1547120900792090,1547120900544200,1.881766,-0.009096,-0.000000,-0.000000,0.000000,-0.001517,1547120900668006,1547120900420628
1547120901040321,1547120900792090,1.883696,-0.014611,-0.000000,-0.000000,-0.000000,-0.002559,1547120900916418,1547120900668006
1547120901289434,1547120901040321,1.887342,-0.012699,-0.000000,-0.000000,-0.000000,-0.002320,1547120901164465,1547120900916418
1547120901539722,1547120901289434,1.890052,-0.016142,0.000000,-0.000000,-0.000000,-0.003722,1547120901414667,1547120901164465
1547120901790131,1547120901539722,1.887063,-0.015873,-0.000000,0.000000,0.000000,-0.003524,1547120901664797,1547120901414667
1547120902040284,1547120901790131,1.890689,-0.016655,-0.000000,0.000000,0.000000,-0.004137,1547120901915690,1547120901664797
1547120902289849,1547120902040284,1.884956,-0.009566,-0.000000,-0.000000,-0.000000,-0.001560,1547120902165119,1547120901915690
1547120902540354,1547120902289849,1.889266,-0.008826,-0.000000,0.000000,0.000000,-0.001129,1547120902414811,1547120902165119
1547120902791654,1547120902540354,1.888475,-0.007276,-0.000000,0.000000,-0.000000,-0.000279,1547120902666253,1547120902414811
1547120903042484,1547120902791654,1.884745,-0.008429,0.000000,-0.000000,-0.000000,0.000082,1547120902917167,1547120902666253
1547120903293548,1547120903042484,1.888066,-0.008332,-0.000000,-0.000000,0.000000,0.000118,1547120903168048,1547120902917167
1547120903544416,1547120903293548,1.836109,-0.012666,-0.000000,0.000000,-0.000000,-0.002876,1547120903419170,1547120903168048
1547120903795639,1547120903544416,1.787190,-0.011237,-0.000000,0.000000,-0.000000,-0.004331,1547120903669903,1547120903419170
1547120904047406,1547120903795639,1.762815,-0.020331,-0.000000,-0.000000,0.000000,-0.007112,1547120903921385,1547120903669903
1547120904300589,1547120904047406,1.731427,-0.015383,-0.000000,0.000000,-0.000000,-0.004157,1547120904173780,1547120903921385
1547120904553785,1547120904300589,1.720006,-0.011188,-0.000000,0.000000,0.000000,-0.001968,1547120904427647,1547120904173780
1547120904805872,1547120904553785,1.715889,-0.011067,-0.000000,0.000000,-0.000000,-0.003132,1547120904680290,1547120904427647
1547120905055974,1547120904805872,1.638984,-0.009553,-0.000000,-0.000000,-0.000000,-0.000581,1547120904931808,1547120904680290
1547120905303969,1547120905055974,1.539043,-0.011441,-0.000000,-0.000000,-0.000000,-0.004730,1547120905180376,1547120904931808
1547120905551721,1547120905303969,1.458041,-0.010463,-0.000000,0.000000,-0.000000,-0.003521,1547120905427798,1547120905180376
1547120905799313,1547120905551721,1.402843,-0.009525,-0.000000,-0.000000,0.000000,-0.001892,1547120905675888,1547120905427798
1547120906046255,1547120905799313,1.318298,-0.007688,-0.000000,0.000000,-0.000000,-0.003143,1547120905922856,1547120905675888
1547120906294180,1547120906046255,1.241795,-0.005312,-0.000000,-0.000000,0.000000,-0.004156,1547120906169884,1547120905922856
1547120906542679,1547120906294180,1.192813,-0.009609,-0.000000,-0.000000,0.000000,-0.002596,1547120906418709,1547120906169884
1547120906792757,1547120906542679,1.122619,-0.003601,-0.000000,0.000000,0.000000,-0.001633,1547120906666756,1547120906418709
1547120907044196,1547120906792757,1.059159,-0.011040,-0.000000,-0.000000,-0.000000,-0.003575,1547120906918986,1547120906666756
